,city_id,url,city,country,lat,lon,temp,wind,clouds,humidity
0,5112038,http://api.openweathermap.org/data/2.5/weather?id=5112038&units=imperial&APPID=0c715aff73757bce5f32aba6da14fd45,Centerport,US,40.89,-73.38,30.2,13.87,1,63
1,1485020,http://api.openweathermap.org/data/2.5/weather?id=1485020&units=imperial&APPID=0c715aff73757bce5f32aba6da14fd45,Znamenskoye,RU,57.13,73.83,3.61,7.52,36,65
2,3775262,http://api.openweathermap.org/data/2.5/weather?id=3775262&units=imperial&APPID=0c715aff73757bce5f32aba6da14fd45,Quipama,CO,5.52,-74.18,79.34,2.59,0,60
3,2989918,http://api.openweathermap.org/data/2.5/weather?id=2989918&units=imperial&APPID=0c715aff73757bce5f32aba6da14fd45,Noyal-Pontivy,FR,48.07,-2.88,46.4,8.05,0,65
4,2265686,http://api.openweathermap.org/data/2.5/weather?id=2265686&units=imperial&APPID=0c715aff73757bce5f32aba6da14fd45,Moura,PT,38.14,-7.45,55.4,9.17,0,47
5,831165,http://api.openweathermap.org/data/2.5/weather?id=831165&units=imperial&APPID=0c715aff73757bce5f32aba6da14fd45,Zarechnyy,RU,53.13,46.58,22.33,11.65,88,90
6,561722,http://api.openweathermap.org/data/2.5/weather?id=561722&units=imperial&APPID=0c715aff73757bce5f32aba6da14fd45,Gayduk,RU,44.78,37.7,55.4,8.95,0,62
7,6693989,http://api.openweathermap.org/data/2.5/weather?id=6693989&units=imperial&APPID=0c715aff73757bce5f32aba6da14fd45,Grappenhall,GB,53.37,-2.55,44.6,2.24,75,93
8,1817993,http://api.openweathermap.org/data/2.5/weather?id=1817993&units=imperial&APPID=0c715aff73757bce5f32aba6da14fd45,Anqing,CN,30.51,117.05,33.76,11.43,0,97
9,1499053,http://api.openweathermap.org/data/2.5/weather?id=1499053&units=imperial&APPID=0c715aff73757bce5f32aba6da14fd45,Megion,RU,61.03,76.11,17.6,8.95,90,85
10,2124615,http://api.openweathermap.org/data/2.5/weather?id=2124615&units=imperial&APPID=0c715aff73757bce5f32aba6da14fd45,Kholmsk,RU,47.05,142.06,21.2,20.13,75,92
11,3354540,http://api.openweathermap.org/data/2.5/weather?id=3354540&units=imperial&APPID=0c715aff73757bce5f32aba6da14fd45,Omaruru,NA,-21.43,15.93,75.29,5.73,32,74
12,3870243,http://api.openweathermap.org/data/2.5/weather?id=3870243&units=imperial&APPID=0c715aff73757bce5f32aba6da14fd45,Taltal,CL,-25.4,-70.48,68.27,3.38,0,72
13,4557148,http://api.openweathermap.org/data/2.5/weather?id=4557148&units=imperial&APPID=0c715aff73757bce5f32aba6da14fd45,Chester Heights,US,39.89,-75.48,30.2,14.99,90,74
14,5273224,http://api.openweathermap.org/data/2.5/weather?id=5273224&units=imperial&APPID=0c715aff73757bce5f32aba6da14fd45,Silver Lake,US,44.06,-89.23,23,9.17,90,85
15,1622090,http://api.openweathermap.org/data/2.5/weather?id=1622090&units=imperial&APPID=0c715aff73757bce5f32aba6da14fd45,Wangon,ID,-7.52,109.05,78.71,8.63,36,100
16,2829595,http://api.openweathermap.org/data/2.5/weather?id=2829595&units=imperial&APPID=0c715aff73757bce5f32aba6da14fd45,Stammbach,DE,50.15,11.68,35.6,9.17,90,94
17,772195,http://api.openweathermap.org/data/2.5/weather?id=772195&units=imperial&APPID=0c715aff73757bce5f32aba6da14fd45,Gizycko,PL,54.04,21.76,30.25,5.95,80,98
18,124193,http://api.openweathermap.org/data/2.5/weather?id=124193&units=imperial&APPID=0c715aff73757bce5f32aba6da14fd45,Meybod,IR,32.25,54.02,55.4,4.7,75,24
19,4406909,http://api.openweathermap.org/data/2.5/weather?id=4406909&units=imperial&APPID=0c715aff73757bce5f32aba6da14fd45,Saint James,US,38,-91.61,37.4,17.22,1,64
20,4354163,http://api.openweathermap.org/data/2.5/weather?id=4354163&units=imperial&APPID=0c715aff73757bce5f32aba6da14fd45,Eldersburg,US,39.4,-76.95,33.8,10.29,90,59
21,371760,http://api.openweathermap.org/data/2.5/weather?id=371760&units=imperial&APPID=0c715aff73757bce5f32aba6da14fd45,Kosti,SD,13.16,32.66,90.59,7.63,0,23
22,1680531,http://api.openweathermap.org/data/2.5/weather?id=1680531&units=imperial&APPID=0c715aff73757bce5f32aba6da14fd45,Tuyom,PH,9.98,122.56,77.27,25.41,100,100
23,3446550,http://api.openweathermap.org/data/2.5/weather?id=3446550&units=imperial&APPID=0c715aff73757bce5f32aba6da14fd45,Tibagi,BR,-24.51,-50.41,81.91,6.17,0,68
24,687433,http://api.openweathermap.org/data/2.5/weather?id=687433&units=imperial&APPID=0c715aff73757bce5f32aba6da14fd45,Zdolbitsa,UA,50.5,26.24,33.8,8.95,90,100
25,2990331,http://api.openweathermap.org/data/2.5/weather?id=2990331&units=imperial&APPID=0c715aff73757bce5f32aba6da14fd45,Nivillac,FR,47.53,-2.28,46.4,8.05,0,70
26,4659557,http://api.openweathermap.org/data/2.5/weather?id=4659557&units=imperial&APPID=0c715aff73757bce5f32aba6da14fd45,Springfield,US,36.51,-86.89,35.6,3.36,1,69
27,3062439,http://api.openweathermap.org/data/2.5/weather?id=3062439&units=imperial&APPID=0c715aff73757bce5f32aba6da14fd45,Vrchlabi,CZ,50.63,15.61,37.4,8.05,0,74
28,3447399,http://api.openweathermap.org/data/2.5/weather?id=3447399&units=imperial&APPID=0c715aff73757bce5f32aba6da14fd45,Sorocaba,BR,-23.5,-47.46,82.4,6.93,20,45
29,3561667,http://api.openweathermap.org/data/2.5/weather?id=3561667&units=imperial&APPID=0c715aff73757bce5f32aba6da14fd45,El Caney,CU,21.3,-78.48,75.2,11.41,75,100
30,152933,http://api.openweathermap.org/data/2.5/weather?id=152933&units=imperial&APPID=0c715aff73757bce5f32aba6da14fd45,Msowero,TZ,-6.53,37.2,91.4,5.82,40,43
31,2820249,http://api.openweathermap.org/data/2.5/weather?id=2820249&units=imperial&APPID=0c715aff73757bce5f32aba6da14fd45,Ulmen,DE,50.21,6.98,37.4,11.41,75,100
32,2991792,http://api.openweathermap.org/data/2.5/weather?id=2991792&units=imperial&APPID=0c715aff73757bce5f32aba6da14fd45,Morigny-Champigny,FR,48.45,2.18,44.6,8.05,75,88
33,535113,http://api.openweathermap.org/data/2.5/weather?id=535113&units=imperial&APPID=0c715aff73757bce5f32aba6da14fd45,Lipin Bor,RU,60.26,37.98,33.17,15.23,80,90
34,3459342,http://api.openweathermap.org/data/2.5/weather?id=3459342&units=imperial&APPID=0c715aff73757bce5f32aba6da14fd45,Lagarto,BR,-10.92,-37.65,84.2,14.99,40,66
35,187968,http://api.openweathermap.org/data/2.5/weather?id=187968&units=imperial&APPID=0c715aff73757bce5f32aba6da14fd45,Malindi,KE,-3.22,40.12,84.2,9.17,20,70
36,3012449,http://api.openweathermap.org/data/2.5/weather?id=3012449&units=imperial&APPID=0c715aff73757bce5f32aba6da14fd45,Jarville-la-Malgrange,FR,48.67,6.21,39.2,5.82,90,80
37,689945,http://api.openweathermap.org/data/2.5/weather?id=689945&units=imperial&APPID=0c715aff73757bce5f32aba6da14fd45,Verenchanka,UA,48.55,25.75,37.4,11.18,75,86
38,1704770,http://api.openweathermap.org/data/2.5/weather?id=1704770&units=imperial&APPID=0c715aff73757bce5f32aba6da14fd45,Maasin,PH,15,121.03,78.8,9.17,90,73
39,1699638,http://api.openweathermap.org/data/2.5/weather?id=1699638&units=imperial&APPID=0c715aff73757bce5f32aba6da14fd45,Minanga,PH,17.76,121.73,71.42,12.21,100,83
40,1690741,http://api.openweathermap.org/data/2.5/weather?id=1690741&units=imperial&APPID=0c715aff73757bce5f32aba6da14fd45,Salvacion,PH,7.98,126.13,79.48,5.73,12,64
41,1683541,http://api.openweathermap.org/data/2.5/weather?id=1683541&units=imperial&APPID=0c715aff73757bce5f32aba6da14fd45,Tambong,PH,12.96,121.48,70.43,10.98,100,100
42,3179288,http://api.openweathermap.org/data/2.5/weather?id=3179288&units=imperial&APPID=0c715aff73757bce5f32aba6da14fd45,Cave,IT,41.82,12.93,55.4,10.29,40,57
43,654837,http://api.openweathermap.org/data/2.5/weather?id=654837&units=imperial&APPID=0c715aff73757bce5f32aba6da14fd45,Kalajoki,FI,64.25,23.95,25.61,6.17,76,100
44,2658146,http://api.openweathermap.org/data/2.5/weather?id=2658146&units=imperial&APPID=0c715aff73757bce5f32aba6da14fd45,Vetroz,CH,46.22,7.29,35.6,1.12,75,85
45,668243,http://api.openweathermap.org/data/2.5/weather?id=668243&units=imperial&APPID=0c715aff73757bce5f32aba6da14fd45,Salard,RO,47.22,22.05,37.4,4.7,75,93
46,1622846,http://api.openweathermap.org/data/2.5/weather?id=1622846&units=imperial&APPID=0c715aff73757bce5f32aba6da14fd45,Ubud,ID,-8.51,115.27,82.4,3.36,40,83
47,2634251,http://api.openweathermap.org/data/2.5/weather?id=2634251&units=imperial&APPID=0c715aff73757bce5f32aba6da14fd45,West Thurrock,GB,51.48,0.28,41,12.75,76,80
48,3208118,http://api.openweathermap.org/data/2.5/weather?id=3208118&units=imperial&APPID=0c715aff73757bce5f32aba6da14fd45,Schoeffengrund,DE,50.49,8.48,41,16.11,75,97
49,2946801,http://api.openweathermap.org/data/2.5/weather?id=2946801&units=imperial&APPID=0c715aff73757bce5f32aba6da14fd45,Bokel,DE,53.39,8.77,39.2,10.29,75,93
50,1278805,http://api.openweathermap.org/data/2.5/weather?id=1278805&units=imperial&APPID=0c715aff73757bce5f32aba6da14fd45,Amethi,IN,28.02,81.05,52.34,7.74,0,92
51,5343202,http://api.openweathermap.org/data/2.5/weather?id=5343202&units=imperial&APPID=0c715aff73757bce5f32aba6da14fd45,Discovery Bay,US,37.91,-121.6,55.4,24.16,1,48
52,411165,http://api.openweathermap.org/data/2.5/weather?id=411165&units=imperial&APPID=0c715aff73757bce5f32aba6da14fd45,Idfu,EG,24.98,32.87,72.68,4.16,0,47
53,3164685,http://api.openweathermap.org/data/2.5/weather?id=3164685&units=imperial&APPID=0c715aff73757bce5f32aba6da14fd45,Varzi,IT,44.82,9.2,42.8,3.04,90,96
54,3518286,http://api.openweathermap.org/data/2.5/weather?id=3518286&units=imperial&APPID=0c715aff73757bce5f32aba6da14fd45,San Miguel Balderas,MX,19.11,-99.65,55.4,16.11,75,87
55,624400,http://api.openweathermap.org/data/2.5/weather?id=624400&units=imperial&APPID=0c715aff73757bce5f32aba6da14fd45,Novoye Medvezhino,BY,53.88,27.45,32,8.95,90,100
56,2845953,http://api.openweathermap.org/data/2.5/weather?id=2845953&units=imperial&APPID=0c715aff73757bce5f32aba6da14fd45,Rodewisch,DE,50.53,12.42,32,8.05,40,93
57,5278897,http://api.openweathermap.org/data/2.5/weather?id=5278897&units=imperial&APPID=0c715aff73757bce5f32aba6da14fd45,Whitefish Bay,US,43.11,-87.9,35.6,7.29,75,74
58,3177047,http://api.openweathermap.org/data/2.5/weather?id=3177047&units=imperial&APPID=0c715aff73757bce5f32aba6da14fd45,Fiano,IT,45.22,7.52,42.8,1.12,0,70
59,5128514,http://api.openweathermap.org/data/2.5/weather?id=5128514&units=imperial&APPID=0c715aff73757bce5f32aba6da14fd45,New Hyde Park,US,40.74,-73.69,30.2,17.22,75,68
60,3629710,http://api.openweathermap.org/data/2.5/weather?id=3629710&units=imperial&APPID=0c715aff73757bce5f32aba6da14fd45,Puerto Ayacucho,VE,5.66,-67.62,80.6,18.34,0,74
61,297371,http://api.openweathermap.org/data/2.5/weather?id=297371&units=imperial&APPID=0c715aff73757bce5f32aba6da14fd45,Yazihan,TR,38.59,38.18,35.6,3.36,90,80
62,726464,http://api.openweathermap.org/data/2.5/weather?id=726464&units=imperial&APPID=0c715aff73757bce5f32aba6da14fd45,Teteven,BG,42.92,24.27,54.05,5.39,92,72
63,685475,http://api.openweathermap.org/data/2.5/weather?id=685475&units=imperial&APPID=0c715aff73757bce5f32aba6da14fd45,Baneasa,RO,45.93,27.93,51.76,15.01,8,71
64,4636045,http://api.openweathermap.org/data/2.5/weather?id=4636045&units=imperial&APPID=0c715aff73757bce5f32aba6da14fd45,Lebanon,US,36.21,-86.29,33.8,11.99,1,92
65,3068750,http://api.openweathermap.org/data/2.5/weather?id=3068750&units=imperial&APPID=0c715aff73757bce5f32aba6da14fd45,Ostrozska Nova Ves,CZ,49,17.44,37.4,3.36,75,95
66,1855078,http://api.openweathermap.org/data/2.5/weather?id=1855078&units=imperial&APPID=0c715aff73757bce5f32aba6da14fd45,Noda,JP,35.94,139.86,53.6,8.19,1,74
67,3029670,http://api.openweathermap.org/data/2.5/weather?id=3029670&units=imperial&APPID=0c715aff73757bce5f32aba6da14fd45,Bucy-le-Long,FR,49.39,3.4,37.76,11.32,36,95
68,1702298,http://api.openweathermap.org/data/2.5/weather?id=1702298&units=imperial&APPID=0c715aff73757bce5f32aba6da14fd45,Mambog,PH,15.31,120.03,77,9.17,90,73
69,1717667,http://api.openweathermap.org/data/2.5/weather?id=1717667&units=imperial&APPID=0c715aff73757bce5f32aba6da14fd45,Causip,PH,13.52,123.28,74.84,27.31,92,100
70,722852,http://api.openweathermap.org/data/2.5/weather?id=722852&units=imperial&APPID=0c715aff73757bce5f32aba6da14fd45,Apagy,HU,47.96,21.94,37.4,12.75,90,93
71,294981,http://api.openweathermap.org/data/2.5/weather?id=294981&units=imperial&APPID=0c715aff73757bce5f32aba6da14fd45,Givat Shemuel,IL,32.08,34.85,69.8,10.29,0,49
72,2997493,http://api.openweathermap.org/data/2.5/weather?id=2997493&units=imperial&APPID=0c715aff73757bce5f32aba6da14fd45,Loubert,FR,45.91,0.59,44.6,9.17,40,70
73,3521103,http://api.openweathermap.org/data/2.5/weather?id=3521103&units=imperial&APPID=0c715aff73757bce5f32aba6da14fd45,Progreso de Obregon,MX,20.25,-99.2,43.16,3.49,32,90
74,3026241,http://api.openweathermap.org/data/2.5/weather?id=3026241&units=imperial&APPID=0c715aff73757bce5f32aba6da14fd45,Chateauneuf-de-Galaure,FR,45.23,4.96,44.6,4.7,75,81
75,2766136,http://api.openweathermap.org/data/2.5/weather?id=2766136&units=imperial&APPID=0c715aff73757bce5f32aba6da14fd45,Scharnstein,AT,47.9,13.96,37.4,8.05,75,86
76,2493918,http://api.openweathermap.org/data/2.5/weather?id=2493918&units=imperial&APPID=0c715aff73757bce5f32aba6da14fd45,Hennaya,DZ,34.95,-1.37,57.2,5.82,75,82
77,714914,http://api.openweathermap.org/data/2.5/weather?id=714914&units=imperial&APPID=0c715aff73757bce5f32aba6da14fd45,Teglas,HU,47.72,21.68,37.4,12.75,90,93
78,1261066,http://api.openweathermap.org/data/2.5/weather?id=1261066&units=imperial&APPID=0c715aff73757bce5f32aba6da14fd45,Okha,IN,22.47,69.06,73.67,21.27,0,96
79,3983216,http://api.openweathermap.org/data/2.5/weather?id=3983216&units=imperial&APPID=0c715aff73757bce5f32aba6da14fd45,Sayula,MX,19.87,-103.62,69.8,2.71,75,73
80,2122614,http://api.openweathermap.org/data/2.5/weather?id=2122614&units=imperial&APPID=0c715aff73757bce5f32aba6da14fd45,Okha,RU,53.57,142.95,5.95,19.04,68,98
81,3186984,http://api.openweathermap.org/data/2.5/weather?id=3186984&units=imperial&APPID=0c715aff73757bce5f32aba6da14fd45,Zabok,HR,46.03,15.91,41,2.24,75,86
82,1846986,http://api.openweathermap.org/data/2.5/weather?id=1846986&units=imperial&APPID=0c715aff73757bce5f32aba6da14fd45,Andong,KR,36.57,128.72,16.03,15.01,0,46
83,3997479,http://api.openweathermap.org/data/2.5/weather?id=3997479&units=imperial&APPID=0c715aff73757bce5f32aba6da14fd45,Los Mochis,MX,25.77,-108.97,57.2,8.05,5,76
84,4255948,http://api.openweathermap.org/data/2.5/weather?id=4255948&units=imperial&APPID=0c715aff73757bce5f32aba6da14fd45,Cloverdale,US,39.51,-86.79,33.8,13.87,1,69
85,1722467,http://api.openweathermap.org/data/2.5/weather?id=1722467&units=imperial&APPID=0c715aff73757bce5f32aba6da14fd45,Burdeos,PH,14.84,121.97,77.36,33.69,92,100
86,3673829,http://api.openweathermap.org/data/2.5/weather?id=3673829&units=imperial&APPID=0c715aff73757bce5f32aba6da14fd45,Nobsa,CO,5.77,-72.94,66.11,1.92,0,59
87,3165847,http://api.openweathermap.org/data/2.5/weather?id=3165847&units=imperial&APPID=0c715aff73757bce5f32aba6da14fd45,Teglio Veneto,IT,45.82,12.89,50,3.36,20,100
88,5328152,http://api.openweathermap.org/data/2.5/weather?id=5328152&units=imperial&APPID=0c715aff73757bce5f32aba6da14fd45,Big Bear City,US,34.26,-116.85,53.6,5.82,1,21
89,2818418,http://api.openweathermap.org/data/2.5/weather?id=2818418&units=imperial&APPID=0c715aff73757bce5f32aba6da14fd45,Unterwellenborn,DE,50.65,11.43,35.6,9.17,90,94
90,360928,http://api.openweathermap.org/data/2.5/weather?id=360928&units=imperial&APPID=0c715aff73757bce5f32aba6da14fd45,Al Khankah,EG,30.21,31.37,71.6,11.41,0,43
91,1023287,http://api.openweathermap.org/data/2.5/weather?id=1023287&units=imperial&APPID=0c715aff73757bce5f32aba6da14fd45,Allanridge,ZA,-27.75,26.64,91.85,8.19,0,23
92,2648057,http://api.openweathermap.org/data/2.5/weather?id=2648057&units=imperial&APPID=0c715aff73757bce5f32aba6da14fd45,Great Missenden,GB,51.7,-0.71,44.6,6.93,75,80
93,770008,http://api.openweathermap.org/data/2.5/weather?id=770008&units=imperial&APPID=0c715aff73757bce5f32aba6da14fd45,Jozefoslaw,PL,52.1,21.05,35.6,8.05,75,97
94,1264047,http://api.openweathermap.org/data/2.5/weather?id=1264047&units=imperial&APPID=0c715aff73757bce5f32aba6da14fd45,Mallasamudram,IN,11.48,78.03,75.83,7.63,0,73
95,2512433,http://api.openweathermap.org/data/2.5/weather?id=2512433&units=imperial&APPID=0c715aff73757bce5f32aba6da14fd45,Polinya de Xuquer,ES,39.2,-0.37,60.8,10.29,20,26
96,1730398,http://api.openweathermap.org/data/2.5/weather?id=1730398&units=imperial&APPID=0c715aff73757bce5f32aba6da14fd45,Aparri,PH,18.36,121.64,77.27,29.33,92,100
97,2405701,http://api.openweathermap.org/data/2.5/weather?id=2405701&units=imperial&APPID=0c715aff73757bce5f32aba6da14fd45,Masoyila,SL,8.61,-13.19,86,8.05,20,58
98,6534493,http://api.openweathermap.org/data/2.5/weather?id=6534493&units=imperial&APPID=0c715aff73757bce5f32aba6da14fd45,Carobbio degli Angeli,IT,45.67,9.83,44.6,3.36,20,86
99,6535769,http://api.openweathermap.org/data/2.5/weather?id=6535769&units=imperial&APPID=0c715aff73757bce5f32aba6da14fd45,Cerro al Lambro,IT,45.33,9.34,44.6,4.7,20,70
100,6534561,http://api.openweathermap.org/data/2.5/weather?id=6534561&units=imperial&APPID=0c715aff73757bce5f32aba6da14fd45,Urago dOglio,IT,45.52,9.87,44.6,3.36,20,86
101,3046537,http://api.openweathermap.org/data/2.5/weather?id=3046537&units=imperial&APPID=0c715aff73757bce5f32aba6da14fd45,Pazmand,HU,47.29,18.65,41,12.75,0,94
102,931865,http://api.openweathermap.org/data/2.5/weather?id=931865&units=imperial&APPID=0c715aff73757bce5f32aba6da14fd45,Balaka,MW,-14.98,34.96,72.28,7.96,76,85
103,337083,http://api.openweathermap.org/data/2.5/weather?id=337083&units=imperial&APPID=0c715aff73757bce5f32aba6da14fd45,Gedo,ET,9.02,37.45,72.14,2.71,20,34
104,3172821,http://api.openweathermap.org/data/2.5/weather?id=3172821&units=imperial&APPID=0c715aff73757bce5f32aba6da14fd45,Montenero di Bisaccia,IT,41.97,14.78,55.4,9.17,40,50
105,2867164,http://api.openweathermap.org/data/2.5/weather?id=2867164&units=imperial&APPID=0c715aff73757bce5f32aba6da14fd45,Nagold,DE,48.55,8.72,41,9.17,40,74
106,2815784,http://api.openweathermap.org/data/2.5/weather?id=2815784&units=imperial&APPID=0c715aff73757bce5f32aba6da14fd45,Wabern,DE,51.1,9.35,37.4,5.82,90,100
107,1813383,http://api.openweathermap.org/data/2.5/weather?id=1813383&units=imperial&APPID=0c715aff73757bce5f32aba6da14fd45,Dawangtai,CN,39.27,117.48,24.8,4.47,0,25
108,1274735,http://api.openweathermap.org/data/2.5/weather?id=1274735&units=imperial&APPID=0c715aff73757bce5f32aba6da14fd45,Chandla,IN,25.08,80.2,64.94,6.96,0,41
109,6292918,http://api.openweathermap.org/data/2.5/weather?id=6292918&units=imperial&APPID=0c715aff73757bce5f32aba6da14fd45,Oberrieden / Berg,CH,47.28,8.57,35.6,10.29,90,99
110,3194099,http://api.openweathermap.org/data/2.5/weather?id=3194099&units=imperial&APPID=0c715aff73757bce5f32aba6da14fd45,Opatija,HR,45.34,14.31,48.2,6.93,75,80
111,2791857,http://api.openweathermap.org/data/2.5/weather?id=2791857&units=imperial&APPID=0c715aff73757bce5f32aba6da14fd45,Maldegem,BE,51.21,3.45,41,16.11,75,75
112,2035669,http://api.openweathermap.org/data/2.5/weather?id=2035669&units=imperial&APPID=0c715aff73757bce5f32aba6da14fd45,Nancha,CN,47.13,129.27,-13.72,2.82,12,60
113,3197896,http://api.openweathermap.org/data/2.5/weather?id=3197896&units=imperial&APPID=0c715aff73757bce5f32aba6da14fd45,Kolasin,ME,42.82,19.52,53.6,2.24,90,76
114,4328973,http://api.openweathermap.org/data/2.5/weather?id=4328973&units=imperial&APPID=0c715aff73757bce5f32aba6da14fd45,Jefferson,US,29.97,-90.15,46.4,6.93,75,70
115,2867286,http://api.openweathermap.org/data/2.5/weather?id=2867286&units=imperial&APPID=0c715aff73757bce5f32aba6da14fd45,Mutzschen,DE,51.26,12.89,35.6,12.75,90,93
116,4336646,http://api.openweathermap.org/data/2.5/weather?id=4336646&units=imperial&APPID=0c715aff73757bce5f32aba6da14fd45,Patterson,US,29.69,-91.3,46.4,6.93,90,75
117,2659574,http://api.openweathermap.org/data/2.5/weather?id=2659574&units=imperial&APPID=0c715aff73757bce5f32aba6da14fd45,Mosnang,CH,47.36,9.04,39.2,10.29,90,100
118,1688949,http://api.openweathermap.org/data/2.5/weather?id=1688949&units=imperial&APPID=0c715aff73757bce5f32aba6da14fd45,San Miguel,PH,15.42,120.6,77,9.17,90,73
119,2012557,http://api.openweathermap.org/data/2.5/weather?id=2012557&units=imperial&APPID=0c715aff73757bce5f32aba6da14fd45,Zheleznogorsk-Ilimskiy,RU,56.58,104.12,5.63,4.27,68,87
120,614897,http://api.openweathermap.org/data/2.5/weather?id=614897&units=imperial&APPID=0c715aff73757bce5f32aba6da14fd45,Dioknisi,GE,41.63,42.39,60.8,17.22,0,83
121,2525349,http://api.openweathermap.org/data/2.5/weather?id=2525349&units=imperial&APPID=0c715aff73757bce5f32aba6da14fd45,Carlentini,IT,37.27,15.01,62.6,4.7,75,93
122,1699138,http://api.openweathermap.org/data/2.5/weather?id=1699138&units=imperial&APPID=0c715aff73757bce5f32aba6da14fd45,Muladbucad,PH,13.24,123.61,74.53,23.06,92,100
123,5427705,http://api.openweathermap.org/data/2.5/weather?id=5427705&units=imperial&APPID=0c715aff73757bce5f32aba6da14fd45,La Junta,US,37.98,-103.54,21.2,6.93,1,67
124,4837648,http://api.openweathermap.org/data/2.5/weather?id=4837648&units=imperial&APPID=0c715aff73757bce5f32aba6da14fd45,Ledyard Center,US,41.44,-72.01,33.8,12.75,1,63
125,4953473,http://api.openweathermap.org/data/2.5/weather?id=4953473&units=imperial&APPID=0c715aff73757bce5f32aba6da14fd45,Turners Falls,US,42.6,-72.56,26.6,5.39,1,92
126,2524610,http://api.openweathermap.org/data/2.5/weather?id=2524610&units=imperial&APPID=0c715aff73757bce5f32aba6da14fd45,Gimigliano,IT,38.97,16.53,59,2.24,75,93
127,2660716,http://api.openweathermap.org/data/2.5/weather?id=2660716&units=imperial&APPID=0c715aff73757bce5f32aba6da14fd45,Frick,CH,47.5,8.02,39.2,2.24,75,96
128,760871,http://api.openweathermap.org/data/2.5/weather?id=760871&units=imperial&APPID=0c715aff73757bce5f32aba6da14fd45,Pysznica,PL,50.57,22.13,32,11.41,90,97
129,1261711,http://api.openweathermap.org/data/2.5/weather?id=1261711&units=imperial&APPID=0c715aff73757bce5f32aba6da14fd45,Nathdwara,IN,24.93,73.82,53.06,4.72,0,69
130,4358916,http://api.openweathermap.org/data/2.5/weather?id=4358916&units=imperial&APPID=0c715aff73757bce5f32aba6da14fd45,Indian Head,US,38.6,-77.16,33.8,4.7,1,68
131,1886762,http://api.openweathermap.org/data/2.5/weather?id=1886762&units=imperial&APPID=0c715aff73757bce5f32aba6da14fd45,Zhoushan,CN,30.01,122.2,45.41,26.75,12,100
132,5364306,http://api.openweathermap.org/data/2.5/weather?id=5364306&units=imperial&APPID=0c715aff73757bce5f32aba6da14fd45,Laguna Hills,US,33.6,-117.7,55.4,8.05,90,71
133,4736028,http://api.openweathermap.org/data/2.5/weather?id=4736028&units=imperial&APPID=0c715aff73757bce5f32aba6da14fd45,Terrell,US,32.74,-96.28,39.2,3.36,1,74
134,1707281,http://api.openweathermap.org/data/2.5/weather?id=1707281&units=imperial&APPID=0c715aff73757bce5f32aba6da14fd45,Lapolapo,PH,13.83,121.14,72.86,10.09,92,100
135,7261282,http://api.openweathermap.org/data/2.5/weather?id=7261282&units=imperial&APPID=0c715aff73757bce5f32aba6da14fd45,Fort Bliss,US,31.81,-106.41,28.4,4.27,1,74
136,2991806,http://api.openweathermap.org/data/2.5/weather?id=2991806&units=imperial&APPID=0c715aff73757bce5f32aba6da14fd45,Morhange,FR,48.92,6.64,39.2,6.93,75,97
137,3516764,http://api.openweathermap.org/data/2.5/weather?id=3516764&units=imperial&APPID=0c715aff73757bce5f32aba6da14fd45,San Vicente Tancuayalab,MX,21.73,-98.57,53.69,4.38,92,92
138,681017,http://api.openweathermap.org/data/2.5/weather?id=681017&units=imperial&APPID=0c715aff73757bce5f32aba6da14fd45,Comanesti,RO,46.42,26.43,51.8,4.7,0,81
139,1277255,http://api.openweathermap.org/data/2.5/weather?id=1277255&units=imperial&APPID=0c715aff73757bce5f32aba6da14fd45,Bannur,IN,12.33,76.86,71.87,10.31,0,66
140,3177489,http://api.openweathermap.org/data/2.5/weather?id=3177489&units=imperial&APPID=0c715aff73757bce5f32aba6da14fd45,Dozza,IT,44.36,11.63,48.2,9.17,75,93
141,3007541,http://api.openweathermap.org/data/2.5/weather?id=3007541&units=imperial&APPID=0c715aff73757bce5f32aba6da14fd45,Lansargues,FR,43.65,4.08,51.8,17.22,0,43
142,2930248,http://api.openweathermap.org/data/2.5/weather?id=2930248&units=imperial&APPID=0c715aff73757bce5f32aba6da14fd45,Engelsbrand,DE,48.83,8.65,41,6.93,75,80
143,5102213,http://api.openweathermap.org/data/2.5/weather?id=5102213&units=imperial&APPID=0c715aff73757bce5f32aba6da14fd45,Orange,US,40.77,-74.23,30.2,5.82,90,73
144,1979115,http://api.openweathermap.org/data/2.5/weather?id=1979115&units=imperial&APPID=0c715aff73757bce5f32aba6da14fd45,Tuka,PH,6.52,124.58,77.27,5.84,20,79
145,4558004,http://api.openweathermap.org/data/2.5/weather?id=4558004&units=imperial&APPID=0c715aff73757bce5f32aba6da14fd45,Folcroft,US,39.89,-75.28,30.2,14.99,90,74
146,2906489,http://api.openweathermap.org/data/2.5/weather?id=2906489&units=imperial&APPID=0c715aff73757bce5f32aba6da14fd45,Henfenfeld,DE,49.5,11.39,37.4,6.93,75,98
147,1713839,http://api.openweathermap.org/data/2.5/weather?id=1713839&units=imperial&APPID=0c715aff73757bce5f32aba6da14fd45,Eraan,PH,9.06,117.7,77.63,7.63,92,97
148,686578,http://api.openweathermap.org/data/2.5/weather?id=686578&units=imperial&APPID=0c715aff73757bce5f32aba6da14fd45,Alba Iulia,RO,46.07,23.58,42.8,21.92,20,75
149,3065644,http://api.openweathermap.org/data/2.5/weather?id=3065644&units=imperial&APPID=0c715aff73757bce5f32aba6da14fd45,Sobeslav,CZ,49.26,14.72,32.41,4.16,76,99
150,4533580,http://api.openweathermap.org/data/2.5/weather?id=4533580&units=imperial&APPID=0c715aff73757bce5f32aba6da14fd45,Claremore,US,36.31,-95.62,41,10.29,1,69
151,3017921,http://api.openweathermap.org/data/2.5/weather?id=3017921&units=imperial&APPID=0c715aff73757bce5f32aba6da14fd45,Fontenay-le-Comte,FR,46.47,-0.82,48.2,10.29,0,61
152,3124914,http://api.openweathermap.org/data/2.5/weather?id=3124914&units=imperial&APPID=0c715aff73757bce5f32aba6da14fd45,Cobeja,ES,40.02,-3.86,55.4,2.24,20,37
153,3021067,http://api.openweathermap.org/data/2.5/weather?id=3021067&units=imperial&APPID=0c715aff73757bce5f32aba6da14fd45,Donville-les-Bains,FR,48.85,-1.58,46.4,12.75,40,65
154,2963007,http://api.openweathermap.org/data/2.5/weather?id=2963007&units=imperial&APPID=0c715aff73757bce5f32aba6da14fd45,Laytown,IE,53.68,-6.24,41,11.41,75,93
155,5234183,http://api.openweathermap.org/data/2.5/weather?id=5234183&units=imperial&APPID=0c715aff73757bce5f32aba6da14fd45,Bristol,US,44.13,-73.08,21.2,9.17,75,79
156,2650174,http://api.openweathermap.org/data/2.5/weather?id=2650174&units=imperial&APPID=0c715aff73757bce5f32aba6da14fd45,Egremont,GB,54.48,-3.53,41.23,9.64,12,98
157,3103402,http://api.openweathermap.org/data/2.5/weather?id=3103402&units=imperial&APPID=0c715aff73757bce5f32aba6da14fd45,Bielsko-Biala,PL,49.82,19.05,35.6,10.29,90,69
158,2523389,http://api.openweathermap.org/data/2.5/weather?id=2523389&units=imperial&APPID=0c715aff73757bce5f32aba6da14fd45,San Pietro a Maida,IT,38.85,16.34,59,2.24,75,93
159,3091462,http://api.openweathermap.org/data/2.5/weather?id=3091462&units=imperial&APPID=0c715aff73757bce5f32aba6da14fd45,Morag,PL,53.92,19.93,31.78,9.19,88,95
160,302355,http://api.openweathermap.org/data/2.5/weather?id=302355&units=imperial&APPID=0c715aff73757bce5f32aba6da14fd45,Reyhanli,TR,36.27,36.57,59,3.15,75,72
161,5388467,http://api.openweathermap.org/data/2.5/weather?id=5388467&units=imperial&APPID=0c715aff73757bce5f32aba6da14fd45,Rodeo,US,38.03,-122.27,57.2,10.29,1,52
162,2979080,http://api.openweathermap.org/data/2.5/weather?id=2979080&units=imperial&APPID=0c715aff73757bce5f32aba6da14fd45,Saint-Julien-du-Sault,FR,48.03,3.3,39.2,11.41,90,86
163,2863711,http://api.openweathermap.org/data/2.5/weather?id=2863711&units=imperial&APPID=0c715aff73757bce5f32aba6da14fd45,Nideggen,DE,50.7,6.48,42.8,16.11,75,80
164,5044347,http://api.openweathermap.org/data/2.5/weather?id=5044347&units=imperial&APPID=0c715aff73757bce5f32aba6da14fd45,Saint Bonifacius,US,44.91,-93.75,26.6,9.17,90,86
165,2289049,http://api.openweathermap.org/data/2.5/weather?id=2289049&units=imperial&APPID=0c715aff73757bce5f32aba6da14fd45,Ferkessedougou,CI,9.6,-5.2,94.01,5.73,0,33
166,4275600,http://api.openweathermap.org/data/2.5/weather?id=4275600&units=imperial&APPID=0c715aff73757bce5f32aba6da14fd45,Mission,US,39.03,-94.66,39.2,12.75,1,55
167,286245,http://api.openweathermap.org/data/2.5/weather?id=286245&units=imperial&APPID=0c715aff73757bce5f32aba6da14fd45,Sur,OM,22.57,59.53,70.03,10.76,88,100
168,2636432,http://api.openweathermap.org/data/2.5/weather?id=2636432&units=imperial&APPID=0c715aff73757bce5f32aba6da14fd45,Swansea,GB,51.62,-3.94,44.6,17.22,75,81
169,2656907,http://api.openweathermap.org/data/2.5/weather?id=2656907&units=imperial&APPID=0c715aff73757bce5f32aba6da14fd45,Askern,GB,53.62,-1.15,41,9.17,0,80
170,662837,http://api.openweathermap.org/data/2.5/weather?id=662837&units=imperial&APPID=0c715aff73757bce5f32aba6da14fd45,Vanatori,RO,47.23,27.53,55.4,5.82,0,50
171,1257498,http://api.openweathermap.org/data/2.5/weather?id=1257498&units=imperial&APPID=0c715aff73757bce5f32aba6da14fd45,Samthar,IN,25.85,78.92,61.07,7.96,0,45
172,475777,http://api.openweathermap.org/data/2.5/weather?id=475777&units=imperial&APPID=0c715aff73757bce5f32aba6da14fd45,Vereshchagino,RU,58.08,54.66,19.13,16.91,68,82
173,585231,http://api.openweathermap.org/data/2.5/weather?id=585231&units=imperial&APPID=0c715aff73757bce5f32aba6da14fd45,Qutqashen,AZ,40.98,47.85,30.92,1.36,0,82
174,2659062,http://api.openweathermap.org/data/2.5/weather?id=2659062&units=imperial&APPID=0c715aff73757bce5f32aba6da14fd45,Rheineck,CH,47.47,9.59,37.4,4.16,90,100
175,141679,http://api.openweathermap.org/data/2.5/weather?id=141679&units=imperial&APPID=0c715aff73757bce5f32aba6da14fd45,Bandar-e Anzali,IR,37.47,49.46,51.8,2.15,75,81
176,4935623,http://api.openweathermap.org/data/2.5/weather?id=4935623&units=imperial&APPID=0c715aff73757bce5f32aba6da14fd45,Easton,US,42.02,-71.13,26.6,8.05,1,68
177,548040,http://api.openweathermap.org/data/2.5/weather?id=548040&units=imperial&APPID=0c715aff73757bce5f32aba6da14fd45,Kitovo,RU,56.87,41.28,35.15,17.58,92,93
178,2468106,http://api.openweathermap.org/data/2.5/weather?id=2468106&units=imperial&APPID=0c715aff73757bce5f32aba6da14fd45,Qasr Hallal,TN,35.65,10.89,60.8,21.92,0,82
179,3400515,http://api.openweathermap.org/data/2.5/weather?id=3400515&units=imperial&APPID=0c715aff73757bce5f32aba6da14fd45,Fagundes,BR,-7.36,-35.78,85.01,11.21,24,52
180,2804810,http://api.openweathermap.org/data/2.5/weather?id=2804810&units=imperial&APPID=0c715aff73757bce5f32aba6da14fd45,Zell im Wiesental,DE,47.71,7.85,39.2,2.24,75,100
181,1848550,http://api.openweathermap.org/data/2.5/weather?id=1848550&units=imperial&APPID=0c715aff73757bce5f32aba6da14fd45,Yanai,JP,33.97,132.12,37.4,4.7,20,51
182,674730,http://api.openweathermap.org/data/2.5/weather?id=674730&units=imperial&APPID=0c715aff73757bce5f32aba6da14fd45,Lipovat,RO,46.57,27.7,55.4,4.7,0,81
183,1706332,http://api.openweathermap.org/data/2.5/weather?id=1706332&units=imperial&APPID=0c715aff73757bce5f32aba6da14fd45,Limanancong,PH,10.99,119.36,80.83,11.99,92,92
184,2897431,http://api.openweathermap.org/data/2.5/weather?id=2897431&units=imperial&APPID=0c715aff73757bce5f32aba6da14fd45,Hungen,DE,50.47,8.89,39.2,9.17,75,80
185,7262905,http://api.openweathermap.org/data/2.5/weather?id=7262905&units=imperial&APPID=0c715aff73757bce5f32aba6da14fd45,Lakes,US,61.61,-149.31,39.2,9.17,90,69
186,2650007,http://api.openweathermap.org/data/2.5/weather?id=2650007&units=imperial&APPID=0c715aff73757bce5f32aba6da14fd45,Emneth,GB,52.64,0.21,39.2,8.05,75,100
187,5256908,http://api.openweathermap.org/data/2.5/weather?id=5256908&units=imperial&APPID=0c715aff73757bce5f32aba6da14fd45,Horicon,US,43.45,-88.63,30.2,10.29,90,92
188,6100069,http://api.openweathermap.org/data/2.5/weather?id=6100069&units=imperial&APPID=0c715aff73757bce5f32aba6da14fd45,Peace River,CA,56.25,-117.29,24.8,11.41,5,62
189,5601538,http://api.openweathermap.org/data/2.5/weather?id=5601538&units=imperial&APPID=0c715aff73757bce5f32aba6da14fd45,Moscow,US,46.73,-117,28.4,3.36,90,85
190,1165789,http://api.openweathermap.org/data/2.5/weather?id=1165789&units=imperial&APPID=0c715aff73757bce5f32aba6da14fd45,Sehwan,PK,26.43,67.86,56.03,6.62,12,92
191,3183581,http://api.openweathermap.org/data/2.5/weather?id=3183581&units=imperial&APPID=0c715aff73757bce5f32aba6da14fd45,Abbadia San Salvatore,IT,42.88,11.67,46.4,10.29,75,87
192,1274714,http://api.openweathermap.org/data/2.5/weather?id=1274714&units=imperial&APPID=0c715aff73757bce5f32aba6da14fd45,Chandpur,IN,29.15,78.27,52.48,9.75,0,74
193,5403191,http://api.openweathermap.org/data/2.5/weather?id=5403191&units=imperial&APPID=0c715aff73757bce5f32aba6da14fd45,Tracy,US,37.74,-121.43,53.6,24.16,1,64
194,5713759,http://api.openweathermap.org/data/2.5/weather?id=5713759&units=imperial&APPID=0c715aff73757bce5f32aba6da14fd45,Bethany,US,45.56,-122.87,39.2,1.14,90,82
195,4566002,http://api.openweathermap.org/data/2.5/weather?id=4566002&units=imperial&APPID=0c715aff73757bce5f32aba6da14fd45,Levittown,PR,18.45,-66.18,80.6,13.87,75,78
196,5116968,http://api.openweathermap.org/data/2.5/weather?id=5116968&units=imperial&APPID=0c715aff73757bce5f32aba6da14fd45,Fayetteville,US,43.03,-76,24.8,18.34,90,68
197,3493100,http://api.openweathermap.org/data/2.5/weather?id=3493100&units=imperial&APPID=0c715aff73757bce5f32aba6da14fd45,San Jose de Ocoa,DO,18.55,-70.5,82.4,11.41,20,74
198,3519675,http://api.openweathermap.org/data/2.5/weather?id=3519675&units=imperial&APPID=0c715aff73757bce5f32aba6da14fd45,San Aparicio,MX,19.1,-98.15,35.6,3.36,75,100
199,2669788,http://api.openweathermap.org/data/2.5/weather?id=2669788&units=imperial&APPID=0c715aff73757bce5f32aba6da14fd45,Taberg,SE,57.68,14.08,28.4,2.24,88,100
200,3835869,http://api.openweathermap.org/data/2.5/weather?id=3835869&units=imperial&APPID=0c715aff73757bce5f32aba6da14fd45,Santiago del Estero,AR,-27.8,-64.26,100.58,21.83,0,39
201,1717896,http://api.openweathermap.org/data/2.5/weather?id=1717896&units=imperial&APPID=0c715aff73757bce5f32aba6da14fd45,Cateel,PH,7.79,126.45,84.65,6.62,24,94
202,719644,http://api.openweathermap.org/data/2.5/weather?id=719644&units=imperial&APPID=0c715aff73757bce5f32aba6da14fd45,Jaszkarajeno,HU,47.05,20.07,42.8,4.7,0,93
203,4335045,http://api.openweathermap.org/data/2.5/weather?id=4335045&units=imperial&APPID=0c715aff73757bce5f32aba6da14fd45,New Orleans,US,29.95,-90.08,46.4,14.99,90,65
204,7262622,http://api.openweathermap.org/data/2.5/weather?id=7262622&units=imperial&APPID=0c715aff73757bce5f32aba6da14fd45,Summerlin South,US,36.1,-115.38,46.4,6.93,68,28
205,1727982,http://api.openweathermap.org/data/2.5/weather?id=1727982&units=imperial&APPID=0c715aff73757bce5f32aba6da14fd45,Baliwagan,PH,8.72,124.79,75.74,15.23,88,96
206,2649624,http://api.openweathermap.org/data/2.5/weather?id=2649624&units=imperial&APPID=0c715aff73757bce5f32aba6da14fd45,Fauldhouse,GB,55.83,-3.71,37.4,3.36,0,93
207,4305266,http://api.openweathermap.org/data/2.5/weather?id=4305266&units=imperial&APPID=0c715aff73757bce5f32aba6da14fd45,Princeton,US,37.11,-87.88,37.4,11.41,1,74
208,2669113,http://api.openweathermap.org/data/2.5/weather?id=2669113&units=imperial&APPID=0c715aff73757bce5f32aba6da14fd45,Tidaholm,SE,58.18,13.96,30.2,2.93,88,86
209,3096292,http://api.openweathermap.org/data/2.5/weather?id=3096292&units=imperial&APPID=0c715aff73757bce5f32aba6da14fd45,Kielczow,PL,51.14,17.18,35.6,5.82,75,95
210,2759687,http://api.openweathermap.org/data/2.5/weather?id=2759687&units=imperial&APPID=0c715aff73757bce5f32aba6da14fd45,Appingedam,NL,53.32,6.86,41,3.36,92,93
211,1727783,http://api.openweathermap.org/data/2.5/weather?id=1727783&units=imperial&APPID=0c715aff73757bce5f32aba6da14fd45,Balud,PH,12.04,123.19,77.5,32.79,92,100
212,2633609,http://api.openweathermap.org/data/2.5/weather?id=2633609&units=imperial&APPID=0c715aff73757bce5f32aba6da14fd45,Wool,GB,50.68,-2.22,44.6,9.17,20,70
213,2333451,http://api.openweathermap.org/data/2.5/weather?id=2333451&units=imperial&APPID=0c715aff73757bce5f32aba6da14fd45,Kumo,NG,10.04,11.21,92.57,6.51,0,23
214,2129395,http://api.openweathermap.org/data/2.5/weather?id=2129395&units=imperial&APPID=0c715aff73757bce5f32aba6da14fd45,Kuroishi,JP,40.64,140.59,31.96,10.2,88,100
215,2656192,http://api.openweathermap.org/data/2.5/weather?id=2656192&units=imperial&APPID=0c715aff73757bce5f32aba6da14fd45,Basingstoke,GB,51.26,-1.09,44.6,13.87,75,70
216,3096385,http://api.openweathermap.org/data/2.5/weather?id=3096385&units=imperial&APPID=0c715aff73757bce5f32aba6da14fd45,Kcynia,PL,52.99,17.49,33.8,10.29,90,95
217,3176260,http://api.openweathermap.org/data/2.5/weather?id=3176260&units=imperial&APPID=0c715aff73757bce5f32aba6da14fd45,Gavoi,IT,40.16,9.2,53.6,19.46,0,32
218,3692529,http://api.openweathermap.org/data/2.5/weather?id=3692529&units=imperial&APPID=0c715aff73757bce5f32aba6da14fd45,San Ignacio,PE,-5.15,-79,64.04,2.26,76,79
219,4013085,http://api.openweathermap.org/data/2.5/weather?id=4013085&units=imperial&APPID=0c715aff73757bce5f32aba6da14fd45,Compostela,MX,21.23,-104.92,53.6,4.7,90,100
220,4360287,http://api.openweathermap.org/data/2.5/weather?id=4360287&units=imperial&APPID=0c715aff73757bce5f32aba6da14fd45,Landover,US,38.93,-76.9,35.6,4.7,1,96
221,4744091,http://api.openweathermap.org/data/2.5/weather?id=4744091&units=imperial&APPID=0c715aff73757bce5f32aba6da14fd45,Alexandria,US,38.8,-77.05,35.6,4.7,1,96
222,6698635,http://api.openweathermap.org/data/2.5/weather?id=6698635&units=imperial&APPID=0c715aff73757bce5f32aba6da14fd45,Lunetten,NL,52.06,5.13,42.8,8.05,40,86
223,8260059,http://api.openweathermap.org/data/2.5/weather?id=8260059&units=imperial&APPID=0c715aff73757bce5f32aba6da14fd45,Catterick Garrison,GB,54.38,-1.72,39.2,5.82,0,69
224,4277011,http://api.openweathermap.org/data/2.5/weather?id=4277011&units=imperial&APPID=0c715aff73757bce5f32aba6da14fd45,Parsons,US,37.34,-95.26,41,17.22,1,56
225,2972607,http://api.openweathermap.org/data/2.5/weather?id=2972607&units=imperial&APPID=0c715aff73757bce5f32aba6da14fd45,Tignes,FR,45.5,6.92,42.8,1.12,0,70
226,2645464,http://api.openweathermap.org/data/2.5/weather?id=2645464&units=imperial&APPID=0c715aff73757bce5f32aba6da14fd45,Kingskerswell,GB,50.5,-3.58,46.4,16.11,40,70
227,3439482,http://api.openweathermap.org/data/2.5/weather?id=3439482&units=imperial&APPID=0c715aff73757bce5f32aba6da14fd45,Acahay,PY,-25.92,-57.15,96.4,5.95,0,49
228,1683511,http://api.openweathermap.org/data/2.5/weather?id=1683511&units=imperial&APPID=0c715aff73757bce5f32aba6da14fd45,Tambalan,PH,9.91,123.09,68.63,14.34,92,100
229,3176243,http://api.openweathermap.org/data/2.5/weather?id=3176243&units=imperial&APPID=0c715aff73757bce5f32aba6da14fd45,Gazzuolo,IT,45.06,10.58,46.4,6.93,75,93
230,2746558,http://api.openweathermap.org/data/2.5/weather?id=2746558&units=imperial&APPID=0c715aff73757bce5f32aba6da14fd45,Surhuisterveen,NL,53.18,6.17,41,9.17,75,80
231,473349,http://api.openweathermap.org/data/2.5/weather?id=473349&units=imperial&APPID=0c715aff73757bce5f32aba6da14fd45,Vistino,RU,59.78,28.48,34.43,13.11,80,100
232,2940246,http://api.openweathermap.org/data/2.5/weather?id=2940246&units=imperial&APPID=0c715aff73757bce5f32aba6da14fd45,Casekow,DE,53.21,14.21,35.6,5.82,75,95
233,5164862,http://api.openweathermap.org/data/2.5/weather?id=5164862&units=imperial&APPID=0c715aff73757bce5f32aba6da14fd45,North Olmsted,US,41.42,-81.92,35.6,11.41,90,64
234,3589637,http://api.openweathermap.org/data/2.5/weather?id=3589637&units=imperial&APPID=0c715aff73757bce5f32aba6da14fd45,San Pedro La Laguna,GT,14.68,-91.27,77,3.27,0,73
235,690485,http://api.openweathermap.org/data/2.5/weather?id=690485&units=imperial&APPID=0c715aff73757bce5f32aba6da14fd45,Vapnyarka,UA,48.53,28.74,45.28,15.23,24,91
236,2473525,http://api.openweathermap.org/data/2.5/weather?id=2473525&units=imperial&APPID=0c715aff73757bce5f32aba6da14fd45,Al Mazzunah,TN,34.58,9.84,62.78,11.88,100,50
237,2510821,http://api.openweathermap.org/data/2.5/weather?id=2510821&units=imperial&APPID=0c715aff73757bce5f32aba6da14fd45,Soller,ES,39.77,2.72,55.4,4.7,20,62
238,1259292,http://api.openweathermap.org/data/2.5/weather?id=1259292&units=imperial&APPID=0c715aff73757bce5f32aba6da14fd45,Pudur,IN,13,79.15,71.06,7.74,0,79
239,1260168,http://api.openweathermap.org/data/2.5/weather?id=1260168&units=imperial&APPID=0c715aff73757bce5f32aba6da14fd45,Patancheru,IN,17.53,78.27,75.2,2.24,20,60
240,1266126,http://api.openweathermap.org/data/2.5/weather?id=1266126&units=imperial&APPID=0c715aff73757bce5f32aba6da14fd45,Koratagere,IN,13.52,77.23,68,4.7,20,94
241,3454827,http://api.openweathermap.org/data/2.5/weather?id=3454827&units=imperial&APPID=0c715aff73757bce5f32aba6da14fd45,Paty do Alferes,BR,-22.43,-43.42,84.2,12.75,20,58
242,6534785,http://api.openweathermap.org/data/2.5/weather?id=6534785&units=imperial&APPID=0c715aff73757bce5f32aba6da14fd45,Rasun Anterselva - Rasen-Antholz,IT,46.78,12.05,44.6,1.59,20,73
243,3453010,http://api.openweathermap.org/data/2.5/weather?id=3453010&units=imperial&APPID=0c715aff73757bce5f32aba6da14fd45,Porciuncula,BR,-20.96,-42.04,83.12,4.16,48,68
244,1607512,http://api.openweathermap.org/data/2.5/weather?id=1607512&units=imperial&APPID=0c715aff73757bce5f32aba6da14fd45,Phra Phutthabat,TH,14.73,100.8,79.66,15.23,32,52
245,256626,http://api.openweathermap.org/data/2.5/weather?id=256626&units=imperial&APPID=0c715aff73757bce5f32aba6da14fd45,Nea Artaki,GR,38.52,23.63,64.4,17.22,90,77
246,2771244,http://api.openweathermap.org/data/2.5/weather?id=2771244&units=imperial&APPID=0c715aff73757bce5f32aba6da14fd45,Moosburg,AT,46.66,14.17,39.2,3.36,75,94
247,3095110,http://api.openweathermap.org/data/2.5/weather?id=3095110&units=imperial&APPID=0c715aff73757bce5f32aba6da14fd45,Koszecin,PL,50.63,18.84,32,6.93,90,96
248,3181572,http://api.openweathermap.org/data/2.5/weather?id=3181572&units=imperial&APPID=0c715aff73757bce5f32aba6da14fd45,Brendola,IT,45.47,11.44,48.2,3.36,0,61
249,3182887,http://api.openweathermap.org/data/2.5/weather?id=3182887&units=imperial&APPID=0c715aff73757bce5f32aba6da14fd45,Arenzano,IT,44.41,8.68,53.6,13.87,0,70
250,4738883,http://api.openweathermap.org/data/2.5/weather?id=4738883&units=imperial&APPID=0c715aff73757bce5f32aba6da14fd45,Van,US,32.52,-95.64,37.4,6.62,1,100
251,5711789,http://api.openweathermap.org/data/2.5/weather?id=5711789&units=imperial&APPID=0c715aff73757bce5f32aba6da14fd45,Ashland,US,42.19,-122.71,24.8,3.36,40,100
252,2548526,http://api.openweathermap.org/data/2.5/weather?id=2548526&units=imperial&APPID=0c715aff73757bce5f32aba6da14fd45,Guelmim,MA,28.99,-10.06,61.34,10.42,92,87
253,2918632,http://api.openweathermap.org/data/2.5/weather?id=2918632&units=imperial&APPID=0c715aff73757bce5f32aba6da14fd45,Gottingen,DE,51.53,9.93,37.4,10.29,75,100
254,1709005,http://api.openweathermap.org/data/2.5/weather?id=1709005&units=imperial&APPID=0c715aff73757bce5f32aba6da14fd45,Kawit,PH,8.19,124.07,79.43,8.75,92,100
255,4225309,http://api.openweathermap.org/data/2.5/weather?id=4225309&units=imperial&APPID=0c715aff73757bce5f32aba6da14fd45,Suwanee,US,34.05,-84.07,33.8,3.36,1,66
256,514906,http://api.openweathermap.org/data/2.5/weather?id=514906&units=imperial&APPID=0c715aff73757bce5f32aba6da14fd45,Orlovka,RU,44.69,44.17,41.23,8.97,88,98
257,4986994,http://api.openweathermap.org/data/2.5/weather?id=4986994&units=imperial&APPID=0c715aff73757bce5f32aba6da14fd45,Brighton,US,42.53,-83.78,35.6,4.7,90,92
258,5324698,http://api.openweathermap.org/data/2.5/weather?id=5324698&units=imperial&APPID=0c715aff73757bce5f32aba6da14fd45,Arnold,US,38.26,-120.35,51.8,3.36,1,66
259,2673076,http://api.openweathermap.org/data/2.5/weather?id=2673076&units=imperial&APPID=0c715aff73757bce5f32aba6da14fd45,Stora Hoga,SE,58.02,11.83,30.2,4.7,75,100
260,4961898,http://api.openweathermap.org/data/2.5/weather?id=4961898&units=imperial&APPID=0c715aff73757bce5f32aba6da14fd45,Cumberland Center,US,43.8,-70.26,15.8,4.7,1,78
261,2247660,http://api.openweathermap.org/data/2.5/weather?id=2247660&units=imperial&APPID=0c715aff73757bce5f32aba6da14fd45,Ndofane,SN,13.92,-15.93,90.28,9.98,48,27
262,2473493,http://api.openweathermap.org/data/2.5/weather?id=2473493&units=imperial&APPID=0c715aff73757bce5f32aba6da14fd45,Monastir,TN,35.78,10.83,60.8,21.92,0,82
263,711348,http://api.openweathermap.org/data/2.5/weather?id=711348&units=imperial&APPID=0c715aff73757bce5f32aba6da14fd45,Buchach,UA,49.06,25.39,33.8,6.71,75,100
264,6693771,http://api.openweathermap.org/data/2.5/weather?id=6693771&units=imperial&APPID=0c715aff73757bce5f32aba6da14fd45,Hadley Wood,GB,51.67,-0.17,41,6.93,75,80
265,1681563,http://api.openweathermap.org/data/2.5/weather?id=1681563&units=imperial&APPID=0c715aff73757bce5f32aba6da14fd45,Tomado,PH,7.19,124.61,76.46,6.17,12,81
266,3067723,http://api.openweathermap.org/data/2.5/weather?id=3067723&units=imperial&APPID=0c715aff73757bce5f32aba6da14fd45,Pozorice,CZ,49.21,16.79,35.6,1.12,75,91
267,3723779,http://api.openweathermap.org/data/2.5/weather?id=3723779&units=imperial&APPID=0c715aff73757bce5f32aba6da14fd45,Jacmel,HT,18.23,-72.53,82.4,10.29,40,61
268,1696751,http://api.openweathermap.org/data/2.5/weather?id=1696751&units=imperial&APPID=0c715aff73757bce5f32aba6da14fd45,Padong,PH,18.05,120.76,74.39,16.69,32,79
269,3703068,http://api.openweathermap.org/data/2.5/weather?id=3703068&units=imperial&APPID=0c715aff73757bce5f32aba6da14fd45,Penonome,PA,8.52,-80.37,83.8,9.75,8,83
270,2976565,http://api.openweathermap.org/data/2.5/weather?id=2976565&units=imperial&APPID=0c715aff73757bce5f32aba6da14fd45,Saint-Vrain,FR,48.54,2.33,44.6,8.05,75,88
271,2762327,http://api.openweathermap.org/data/2.5/weather?id=2762327&units=imperial&APPID=0c715aff73757bce5f32aba6da14fd45,Voitsberg,AT,47.03,15.15,41,3.36,75,80
272,3769976,http://api.openweathermap.org/data/2.5/weather?id=3769976&units=imperial&APPID=0c715aff73757bce5f32aba6da14fd45,Puerto Gaitan,CO,4.31,-72.08,90.1,16.02,24,44
273,3018835,http://api.openweathermap.org/data/2.5/weather?id=3018835&units=imperial&APPID=0c715aff73757bce5f32aba6da14fd45,Fayence,FR,43.63,6.7,59,9.17,0,19
274,561437,http://api.openweathermap.org/data/2.5/weather?id=561437&units=imperial&APPID=0c715aff73757bce5f32aba6da14fd45,Gizel,RU,43.04,44.57,32.63,1.92,0,88
275,1708191,http://api.openweathermap.org/data/2.5/weather?id=1708191&units=imperial&APPID=0c715aff73757bce5f32aba6da14fd45,La Curva,PH,12.4,121.05,69.62,5.61,100,97
276,3865385,http://api.openweathermap.org/data/2.5/weather?id=3865385&units=imperial&APPID=0c715aff73757bce5f32aba6da14fd45,Arroyo Seco,AR,-33.15,-60.51,84.2,27.51,0,54
277,2742750,http://api.openweathermap.org/data/2.5/weather?id=2742750&units=imperial&APPID=0c715aff73757bce5f32aba6da14fd45,Argoncilhe,PT,41.03,-8.54,55.4,9.17,20,62
278,1732742,http://api.openweathermap.org/data/2.5/weather?id=1732742&units=imperial&APPID=0c715aff73757bce5f32aba6da14fd45,Kulai,MY,1.66,103.6,80.6,3.36,75,83
279,2975446,http://api.openweathermap.org/data/2.5/weather?id=2975446&units=imperial&APPID=0c715aff73757bce5f32aba6da14fd45,Schiltigheim,FR,48.61,7.75,41,6.93,75,80
280,1697911,http://api.openweathermap.org/data/2.5/weather?id=1697911&units=imperial&APPID=0c715aff73757bce5f32aba6da14fd45,Naujan,PH,13.32,121.3,70.43,10.98,100,100
281,1060007,http://api.openweathermap.org/data/2.5/weather?id=1060007&units=imperial&APPID=0c715aff73757bce5f32aba6da14fd45,Marolambo,MG,-20.05,48.12,64.18,3.49,92,99
282,1718247,http://api.openweathermap.org/data/2.5/weather?id=1718247&units=imperial&APPID=0c715aff73757bce5f32aba6da14fd45,Cartagena,PH,9.82,122.4,77.68,24.52,100,100
283,5014130,http://api.openweathermap.org/data/2.5/weather?id=5014130&units=imperial&APPID=0c715aff73757bce5f32aba6da14fd45,Waterford,US,42.7,-83.4,35.6,5.82,90,92
284,630952,http://api.openweathermap.org/data/2.5/weather?id=630952&units=imperial&APPID=0c715aff73757bce5f32aba6da14fd45,Yli-Ii,FI,65.37,25.83,19.4,3.36,88,100
285,3832719,http://api.openweathermap.org/data/2.5/weather?id=3832719&units=imperial&APPID=0c715aff73757bce5f32aba6da14fd45,Villa Huidobro,AR,-34.84,-64.59,87.53,10.98,20,55
286,4753409,http://api.openweathermap.org/data/2.5/weather?id=4753409&units=imperial&APPID=0c715aff73757bce5f32aba6da14fd45,Coeburn,US,36.94,-82.46,28.4,9.17,1,79
287,2646329,http://api.openweathermap.org/data/2.5/weather?id=2646329&units=imperial&APPID=0c715aff73757bce5f32aba6da14fd45,Huyton,GB,53.41,-2.84,44.6,4.7,40,100
288,7257391,http://api.openweathermap.org/data/2.5/weather?id=7257391&units=imperial&APPID=0c715aff73757bce5f32aba6da14fd45,Northwest Harwinton,US,41.78,-73.08,28.4,5.82,1,79
289,1700092,http://api.openweathermap.org/data/2.5/weather?id=1700092&units=imperial&APPID=0c715aff73757bce5f32aba6da14fd45,Mayabon,PH,9.1,123.17,79.48,19.71,100,90
290,2965449,http://api.openweathermap.org/data/2.5/weather?id=2965449&units=imperial&APPID=0c715aff73757bce5f32aba6da14fd45,Clifden,IE,53.48,-10.02,49.46,16.8,92,93
291,1272001,http://api.openweathermap.org/data/2.5/weather?id=1272001&units=imperial&APPID=0c715aff73757bce5f32aba6da14fd45,Erumaippatti,IN,11.17,78.28,80.6,4.7,20,69
292,2950979,http://api.openweathermap.org/data/2.5/weather?id=2950979&units=imperial&APPID=0c715aff73757bce5f32aba6da14fd45,Benshausen,DE,50.65,10.6,35.6,12.75,75,95
293,3947740,http://api.openweathermap.org/data/2.5/weather?id=3947740&units=imperial&APPID=0c715aff73757bce5f32aba6da14fd45,Andahuaylas,PE,-13.66,-73.39,51.8,2.37,40,57
294,5795025,http://api.openweathermap.org/data/2.5/weather?id=5795025&units=imperial&APPID=0c715aff73757bce5f32aba6da14fd45,Freeland,US,48.01,-122.53,39.2,3.36,90,100
295,3169392,http://api.openweathermap.org/data/2.5/weather?id=3169392&units=imperial&APPID=0c715aff73757bce5f32aba6da14fd45,Rignano sullArno,IT,43.72,11.45,44.6,6.93,40,75
296,3530582,http://api.openweathermap.org/data/2.5/weather?id=3530582&units=imperial&APPID=0c715aff73757bce5f32aba6da14fd45,Ciudad Valles,MX,21.98,-99.02,53.83,3.94,92,81
297,1566559,http://api.openweathermap.org/data/2.5/weather?id=1566559&units=imperial&APPID=0c715aff73757bce5f32aba6da14fd45,Tay Ninh,VN,11.3,106.1,78.17,13.44,0,55
298,1257539,http://api.openweathermap.org/data/2.5/weather?id=1257539&units=imperial&APPID=0c715aff73757bce5f32aba6da14fd45,Sambhar,IN,26.92,75.2,64.4,3.36,0,22
299,3085809,http://api.openweathermap.org/data/2.5/weather?id=3085809&units=imperial&APPID=0c715aff73757bce5f32aba6da14fd45,Skawica,PL,49.68,19.62,35.6,10.29,90,69
300,695559,http://api.openweathermap.org/data/2.5/weather?id=695559&units=imperial&APPID=0c715aff73757bce5f32aba6da14fd45,Rogatin,UA,49.41,24.61,33.8,6.71,75,100
301,5779833,http://api.openweathermap.org/data/2.5/weather?id=5779833&units=imperial&APPID=0c715aff73757bce5f32aba6da14fd45,Pleasant View,US,41.32,-111.99,32,4.7,90,92
302,693193,http://api.openweathermap.org/data/2.5/weather?id=693193&units=imperial&APPID=0c715aff73757bce5f32aba6da14fd45,Solonka,UA,49.76,24.01,32,6.71,90,97
303,2847655,http://api.openweathermap.org/data/2.5/weather?id=2847655&units=imperial&APPID=0c715aff73757bce5f32aba6da14fd45,Rheinbreitbach,DE,50.62,7.23,41,16.11,75,80
304,5146831,http://api.openweathermap.org/data/2.5/weather?id=5146831&units=imperial&APPID=0c715aff73757bce5f32aba6da14fd45,Bedford,US,41.39,-81.54,35.6,17.22,90,64
305,4338012,http://api.openweathermap.org/data/2.5/weather?id=4338012&units=imperial&APPID=0c715aff73757bce5f32aba6da14fd45,Prairieville,US,30.3,-90.97,42.8,4.7,90,56
306,3177276,http://api.openweathermap.org/data/2.5/weather?id=3177276&units=imperial&APPID=0c715aff73757bce5f32aba6da14fd45,Faicchio,IT,41.28,14.48,57.2,4.05,75,67
307,1703221,http://api.openweathermap.org/data/2.5/weather?id=1703221&units=imperial&APPID=0c715aff73757bce5f32aba6da14fd45,Malajog,PH,12.11,124.48,77.27,32.12,92,100
308,1797929,http://api.openweathermap.org/data/2.5/weather?id=1797929&units=imperial&APPID=0c715aff73757bce5f32aba6da14fd45,Qingdao,CN,36.1,120.37,23,2.24,0,49
309,2960720,http://api.openweathermap.org/data/2.5/weather?id=2960720&units=imperial&APPID=0c715aff73757bce5f32aba6da14fd45,Bridel,LU,49.66,6.08,37.4,6.93,75,86
310,5116408,http://api.openweathermap.org/data/2.5/weather?id=5116408&units=imperial&APPID=0c715aff73757bce5f32aba6da14fd45,Ellenville,US,41.72,-74.4,24.8,8.05,90,79
311,602804,http://api.openweathermap.org/data/2.5/weather?id=602804&units=imperial&APPID=0c715aff73757bce5f32aba6da14fd45,Sodra Sunderbyn,SE,65.66,21.94,21.2,1.12,90,100
312,3093027,http://api.openweathermap.org/data/2.5/weather?id=3093027&units=imperial&APPID=0c715aff73757bce5f32aba6da14fd45,Lubawka,PL,50.7,16,32.63,8.86,48,95
313,3617052,http://api.openweathermap.org/data/2.5/weather?id=3617052&units=imperial&APPID=0c715aff73757bce5f32aba6da14fd45,Rivas,NI,11.44,-85.83,80.6,9.17,40,78
314,2512127,http://api.openweathermap.org/data/2.5/weather?id=2512127&units=imperial&APPID=0c715aff73757bce5f32aba6da14fd45,Pucol,ES,39.62,-0.3,60.8,10.29,20,26
315,5371261,http://api.openweathermap.org/data/2.5/weather?id=5371261&units=imperial&APPID=0c715aff73757bce5f32aba6da14fd45,Maywood,US,33.99,-118.19,57.2,3.04,40,62
316,1278023,http://api.openweathermap.org/data/2.5/weather?id=1278023&units=imperial&APPID=0c715aff73757bce5f32aba6da14fd45,Badagara,IN,11.6,75.58,82.4,7.52,20,69
317,2953371,http://api.openweathermap.org/data/2.5/weather?id=2953371&units=imperial&APPID=0c715aff73757bce5f32aba6da14fd45,Bad Reichenhall,DE,47.73,12.88,35.6,5.82,75,93
318,3104397,http://api.openweathermap.org/data/2.5/weather?id=3104397&units=imperial&APPID=0c715aff73757bce5f32aba6da14fd45,Yuncler,ES,40.04,-3.9,55.4,2.24,20,37
319,934573,http://api.openweathermap.org/data/2.5/weather?id=934573&units=imperial&APPID=0c715aff73757bce5f32aba6da14fd45,Creve Coeur,MU,-20.19,57.56,82.4,6.93,40,74
320,1106813,http://api.openweathermap.org/data/2.5/weather?id=1106813&units=imperial&APPID=0c715aff73757bce5f32aba6da14fd45,Arsenal,MU,-20.11,57.54,82.4,6.93,40,74
321,4801859,http://api.openweathermap.org/data/2.5/weather?id=4801859&units=imperial&APPID=0c715aff73757bce5f32aba6da14fd45,Charleston,US,38.35,-81.63,35.6,9.17,40,55
322,6534622,http://api.openweathermap.org/data/2.5/weather?id=6534622&units=imperial&APPID=0c715aff73757bce5f32aba6da14fd45,Massanzago,IT,45.56,12.01,50,2.24,0,57
323,4764534,http://api.openweathermap.org/data/2.5/weather?id=4764534&units=imperial&APPID=0c715aff73757bce5f32aba6da14fd45,Hollins,US,37.34,-79.94,35.6,5.82,1,55
324,5088619,http://api.openweathermap.org/data/2.5/weather?id=5088619&units=imperial&APPID=0c715aff73757bce5f32aba6da14fd45,Lee,US,43.12,-71.01,24.8,8.05,20,67
325,667445,http://api.openweathermap.org/data/2.5/weather?id=667445&units=imperial&APPID=0c715aff73757bce5f32aba6da14fd45,Seica Mare,RO,46.02,24.15,46.4,21.92,20,75
326,3026208,http://api.openweathermap.org/data/2.5/weather?id=3026208&units=imperial&APPID=0c715aff73757bce5f32aba6da14fd45,Chateau-Renault,FR,47.59,0.91,44.6,9.17,75,65
327,2792856,http://api.openweathermap.org/data/2.5/weather?id=2792856&units=imperial&APPID=0c715aff73757bce5f32aba6da14fd45,Leopoldsburg,BE,51.12,5.25,39.2,6.93,88,93
328,4399914,http://api.openweathermap.org/data/2.5/weather?id=4399914&units=imperial&APPID=0c715aff73757bce5f32aba6da14fd45,Murphy,US,38.49,-90.49,39.2,9.17,1,60
329,784764,http://api.openweathermap.org/data/2.5/weather?id=784764&units=imperial&APPID=0c715aff73757bce5f32aba6da14fd45,Umka,RS,44.68,20.3,41,10.29,0,86
330,3087773,http://api.openweathermap.org/data/2.5/weather?id=3087773&units=imperial&APPID=0c715aff73757bce5f32aba6da14fd45,Przyszowice,PL,50.25,18.75,32,6.93,90,96
331,4237767,http://api.openweathermap.org/data/2.5/weather?id=4237767&units=imperial&APPID=0c715aff73757bce5f32aba6da14fd45,Eldorado,US,37.81,-88.44,35.6,9.17,1,80
332,4500546,http://api.openweathermap.org/data/2.5/weather?id=4500546&units=imperial&APPID=0c715aff73757bce5f32aba6da14fd45,Atlantic City,US,39.36,-74.42,35.6,8.05,1,79
333,4518257,http://api.openweathermap.org/data/2.5/weather?id=4518257&units=imperial&APPID=0c715aff73757bce5f32aba6da14fd45,Middleport,US,39,-82.05,35.6,6.93,75,64
334,3166614,http://api.openweathermap.org/data/2.5/weather?id=3166614&units=imperial&APPID=0c715aff73757bce5f32aba6da14fd45,Sessa Aurunca,IT,41.24,13.93,57.2,5.06,75,67
335,2657968,http://api.openweathermap.org/data/2.5/weather?id=2657968&units=imperial&APPID=0c715aff73757bce5f32aba6da14fd45,Wittenbach,CH,47.46,9.38,37.4,4.16,90,100
336,3406910,http://api.openweathermap.org/data/2.5/weather?id=3406910&units=imperial&APPID=0c715aff73757bce5f32aba6da14fd45,Bacabal,BR,-4.29,-44.79,79.93,8.63,92,100
337,2207783,http://api.openweathermap.org/data/2.5/weather?id=2207783&units=imperial&APPID=0c715aff73757bce5f32aba6da14fd45,Drummoyne,AU,-33.85,151.15,75.2,12.75,75,94
338,2880503,http://api.openweathermap.org/data/2.5/weather?id=2880503&units=imperial&APPID=0c715aff73757bce5f32aba6da14fd45,Lankow,DE,53.65,11.37,39.2,9.17,75,86
339,3527543,http://api.openweathermap.org/data/2.5/weather?id=3527543&units=imperial&APPID=0c715aff73757bce5f32aba6da14fd45,Frontera Comalapa,MX,15.65,-92.13,66.25,1.7,32,67
340,711752,http://api.openweathermap.org/data/2.5/weather?id=711752&units=imperial&APPID=0c715aff73757bce5f32aba6da14fd45,Bilshivtsi,UA,49.18,24.75,33.8,6.71,75,100
341,1715804,http://api.openweathermap.org/data/2.5/weather?id=1715804&units=imperial&APPID=0c715aff73757bce5f32aba6da14fd45,Danao,PH,10.52,124.03,77,10.29,90,83
342,4905259,http://api.openweathermap.org/data/2.5/weather?id=4905259&units=imperial&APPID=0c715aff73757bce5f32aba6da14fd45,Palos Heights,US,41.67,-87.8,35.6,9.17,1,74
343,4013076,http://api.openweathermap.org/data/2.5/weather?id=4013076&units=imperial&APPID=0c715aff73757bce5f32aba6da14fd45,Compuertas,MX,25.45,-108.35,65.71,9.31,0,100
344,2514176,http://api.openweathermap.org/data/2.5/weather?id=2514176&units=imperial&APPID=0c715aff73757bce5f32aba6da14fd45,Maracena,ES,37.21,-3.63,55.4,8.05,20,37
345,4450411,http://api.openweathermap.org/data/2.5/weather?id=4450411&units=imperial&APPID=0c715aff73757bce5f32aba6da14fd45,Waveland,US,30.29,-89.38,46.4,14.79,75,75
346,749704,http://api.openweathermap.org/data/2.5/weather?id=749704&units=imperial&APPID=0c715aff73757bce5f32aba6da14fd45,Carsamba,TR,41.2,36.72,60.8,2.37,40,51
347,2944178,http://api.openweathermap.org/data/2.5/weather?id=2944178&units=imperial&APPID=0c715aff73757bce5f32aba6da14fd45,Bretzfeld,DE,49.18,9.44,37.4,11.41,90,86
348,1802545,http://api.openweathermap.org/data/2.5/weather?id=1802545&units=imperial&APPID=0c715aff73757bce5f32aba6da14fd45,Longlisuo,CN,26.41,109.1,34.25,7.74,0,74
349,2978161,http://api.openweathermap.org/data/2.5/weather?id=2978161&units=imperial&APPID=0c715aff73757bce5f32aba6da14fd45,Saint-Maurice-de-Gourdans,FR,45.82,5.19,44.6,8.05,75,75
350,4489790,http://api.openweathermap.org/data/2.5/weather?id=4489790&units=imperial&APPID=0c715aff73757bce5f32aba6da14fd45,Saint Pauls,US,34.81,-78.97,37.4,4.7,1,69
351,1712252,http://api.openweathermap.org/data/2.5/weather?id=1712252&units=imperial&APPID=0c715aff73757bce5f32aba6da14fd45,Giawang,PH,9.79,124.51,79.16,31,92,100
352,4259671,http://api.openweathermap.org/data/2.5/weather?id=4259671&units=imperial&APPID=0c715aff73757bce5f32aba6da14fd45,Jeffersonville,US,38.28,-85.74,35.6,9.17,1,69
353,2826595,http://api.openweathermap.org/data/2.5/weather?id=2826595&units=imperial&APPID=0c715aff73757bce5f32aba6da14fd45,Stolberg,DE,50.77,6.23,42.8,14.99,68,86
354,3042507,http://api.openweathermap.org/data/2.5/weather?id=3042507&units=imperial&APPID=0c715aff73757bce5f32aba6da14fd45,Zsambek,HU,47.55,18.72,41,12.75,0,94
355,5043556,http://api.openweathermap.org/data/2.5/weather?id=5043556&units=imperial&APPID=0c715aff73757bce5f32aba6da14fd45,Rockford,US,45.09,-93.73,28.4,8.05,90,92
356,3037747,http://api.openweathermap.org/data/2.5/weather?id=3037747&units=imperial&APPID=0c715aff73757bce5f32aba6da14fd45,Andard,FR,47.46,-0.4,42.8,8.05,75,75
357,3125621,http://api.openweathermap.org/data/2.5/weather?id=3125621&units=imperial&APPID=0c715aff73757bce5f32aba6da14fd45,Castro-Urdiales,ES,43.38,-3.22,51.8,3.36,75,87
358,2856159,http://api.openweathermap.org/data/2.5/weather?id=2856159&units=imperial&APPID=0c715aff73757bce5f32aba6da14fd45,Otisheim,DE,48.97,8.8,41,9.17,40,74
359,3164502,http://api.openweathermap.org/data/2.5/weather?id=3164502&units=imperial&APPID=0c715aff73757bce5f32aba6da14fd45,Verucchio,IT,43.98,12.42,44.6,11.41,40,93
360,4983572,http://api.openweathermap.org/data/2.5/weather?id=4983572&units=imperial&APPID=0c715aff73757bce5f32aba6da14fd45,Yarmouth,US,43.8,-70.19,15.8,5.95,40,85
361,3178217,http://api.openweathermap.org/data/2.5/weather?id=3178217&units=imperial&APPID=0c715aff73757bce5f32aba6da14fd45,Cona,IT,45.19,12.02,48.2,6.93,20,70
362,3584772,http://api.openweathermap.org/data/2.5/weather?id=3584772&units=imperial&APPID=0c715aff73757bce5f32aba6da14fd45,La Union,SV,13.34,-87.84,71.6,8.75,0,94
363,1258698,http://api.openweathermap.org/data/2.5/weather?id=1258698&units=imperial&APPID=0c715aff73757bce5f32aba6da14fd45,Rameswaram,IN,9.28,79.3,81.05,21.72,92,100
364,5582392,http://api.openweathermap.org/data/2.5/weather?id=5582392&units=imperial&APPID=0c715aff73757bce5f32aba6da14fd45,Sterling,US,40.63,-103.21,46.4,3.36,1,73
365,5543377,http://api.openweathermap.org/data/2.5/weather?id=5543377&units=imperial&APPID=0c715aff73757bce5f32aba6da14fd45,Monticello,US,37.87,-109.34,16.21,3.71,68,69
366,4163083,http://api.openweathermap.org/data/2.5/weather?id=4163083&units=imperial&APPID=0c715aff73757bce5f32aba6da14fd45,Macclenny,US,30.28,-82.12,50,9.17,90,61
367,4483174,http://api.openweathermap.org/data/2.5/weather?id=4483174&units=imperial&APPID=0c715aff73757bce5f32aba6da14fd45,Ogden,US,34.27,-77.82,39.2,3.36,1,69
368,1493110,http://api.openweathermap.org/data/2.5/weather?id=1493110&units=imperial&APPID=0c715aff73757bce5f32aba6da14fd45,Samus,RU,56.75,84.7,10.22,7.74,92,83
369,3172946,http://api.openweathermap.org/data/2.5/weather?id=3172946&units=imperial&APPID=0c715aff73757bce5f32aba6da14fd45,Monte di Procida,IT,40.8,14.05,57.2,24.52,75,67
370,2510944,http://api.openweathermap.org/data/2.5/weather?id=2510944&units=imperial&APPID=0c715aff73757bce5f32aba6da14fd45,Seron,ES,37.34,-2.51,62.6,10.29,75,42
371,2562698,http://api.openweathermap.org/data/2.5/weather?id=2562698&units=imperial&APPID=0c715aff73757bce5f32aba6da14fd45,Imsida,MT,35.89,14.48,60.8,13.87,40,77
372,310907,http://api.openweathermap.org/data/2.5/weather?id=310907&units=imperial&APPID=0c715aff73757bce5f32aba6da14fd45,Kadinhani,TR,38.24,32.21,51.8,9.17,75,71
373,3351014,http://api.openweathermap.org/data/2.5/weather?id=3351014&units=imperial&APPID=0c715aff73757bce5f32aba6da14fd45,Camacupa,AO,-12.02,17.48,68.41,7.63,80,95
374,1688590,http://api.openweathermap.org/data/2.5/weather?id=1688590&units=imperial&APPID=0c715aff73757bce5f32aba6da14fd45,San Ricardo,PH,15.6,120.97,77,9.17,90,73
375,3036256,http://api.openweathermap.org/data/2.5/weather?id=3036256&units=imperial&APPID=0c715aff73757bce5f32aba6da14fd45,Audenge,FR,44.69,-1.01,50,6.93,32,66
376,703328,http://api.openweathermap.org/data/2.5/weather?id=703328&units=imperial&APPID=0c715aff73757bce5f32aba6da14fd45,Lazeshchyna,UA,48.27,24.42,33.13,5.73,88,94
377,2650517,http://api.openweathermap.org/data/2.5/weather?id=2650517&units=imperial&APPID=0c715aff73757bce5f32aba6da14fd45,Easingwold,GB,54.12,-1.19,37.4,11.41,20,93
378,7874482,http://api.openweathermap.org/data/2.5/weather?id=7874482&units=imperial&APPID=0c715aff73757bce5f32aba6da14fd45,Pantanal,BR,-27.61,-48.52,80.6,12.75,40,69
379,1726363,http://api.openweathermap.org/data/2.5/weather?id=1726363&units=imperial&APPID=0c715aff73757bce5f32aba6da14fd45,Basud,PH,11.37,124.36,76.1,41.07,100,100
380,4115334,http://api.openweathermap.org/data/2.5/weather?id=4115334&units=imperial&APPID=0c715aff73757bce5f32aba6da14fd45,Horseshoe Bend,US,36.23,-91.76,37.4,6.93,1,69
381,2983833,http://api.openweathermap.org/data/2.5/weather?id=2983833&units=imperial&APPID=0c715aff73757bce5f32aba6da14fd45,Revel,FR,43.46,2,44.6,17.22,90,70
382,776755,http://api.openweathermap.org/data/2.5/weather?id=776755&units=imperial&APPID=0c715aff73757bce5f32aba6da14fd45,Aleksandrow,PL,50.47,22.89,32.54,10.76,92,99
383,1275354,http://api.openweathermap.org/data/2.5/weather?id=1275354&units=imperial&APPID=0c715aff73757bce5f32aba6da14fd45,Bolanikhodan,IN,22.1,85.32,65.8,5.95,0,61
384,169304,http://api.openweathermap.org/data/2.5/weather?id=169304&units=imperial&APPID=0c715aff73757bce5f32aba6da14fd45,Jablah,SY,35.36,35.93,66.2,6.93,75,68
385,2686657,http://api.openweathermap.org/data/2.5/weather?id=2686657&units=imperial&APPID=0c715aff73757bce5f32aba6da14fd45,Orebro,SE,59.27,15.21,33.8,11.41,75,100
386,3995847,http://api.openweathermap.org/data/2.5/weather?id=3995847&units=imperial&APPID=0c715aff73757bce5f32aba6da14fd45,Mina,MX,26,-100.53,44.6,3.36,90,87
387,1273173,http://api.openweathermap.org/data/2.5/weather?id=1273173&units=imperial&APPID=0c715aff73757bce5f32aba6da14fd45,Dera Nanak,IN,32.04,75.03,53.6,2.24,0,66
388,1267827,http://api.openweathermap.org/data/2.5/weather?id=1267827&units=imperial&APPID=0c715aff73757bce5f32aba6da14fd45,Karari,IN,25.45,81.43,60.31,4.05,0,71
389,3578466,http://api.openweathermap.org/data/2.5/weather?id=3578466&units=imperial&APPID=0c715aff73757bce5f32aba6da14fd45,Sainte-Anne,GP,16.23,-61.38,84.2,14.99,20,58
390,4688071,http://api.openweathermap.org/data/2.5/weather?id=4688071&units=imperial&APPID=0c715aff73757bce5f32aba6da14fd45,Eastland,US,32.4,-98.82,41,3.36,1,64
391,2638207,http://api.openweathermap.org/data/2.5/weather?id=2638207&units=imperial&APPID=0c715aff73757bce5f32aba6da14fd45,Send,GB,51.29,-0.53,42.8,6.93,40,80
392,4672494,http://api.openweathermap.org/data/2.5/weather?id=4672494&units=imperial&APPID=0c715aff73757bce5f32aba6da14fd45,Barton Creek,US,30.29,-97.87,46.4,3.15,90,70
393,6067033,http://api.openweathermap.org/data/2.5/weather?id=6067033&units=imperial&APPID=0c715aff73757bce5f32aba6da14fd45,Martensville,CA,52.28,-106.67,23,11.41,5,79
394,578940,http://api.openweathermap.org/data/2.5/weather?id=578940&units=imperial&APPID=0c715aff73757bce5f32aba6da14fd45,Barybino,RU,55.27,37.89,41,15.66,75,93
395,3471335,http://api.openweathermap.org/data/2.5/weather?id=3471335&units=imperial&APPID=0c715aff73757bce5f32aba6da14fd45,Atibaia,BR,-23.12,-46.55,86,3.36,0,51
396,3175950,http://api.openweathermap.org/data/2.5/weather?id=3175950&units=imperial&APPID=0c715aff73757bce5f32aba6da14fd45,Gragnano Trebbiense,IT,45.01,9.57,44.6,2.24,75,100
397,4843786,http://api.openweathermap.org/data/2.5/weather?id=4843786&units=imperial&APPID=0c715aff73757bce5f32aba6da14fd45,Storrs,US,41.81,-72.25,28.4,7.4,1,85
398,1514792,http://api.openweathermap.org/data/2.5/weather?id=1514792&units=imperial&APPID=0c715aff73757bce5f32aba6da14fd45,Gazojak,TM,41.19,61.4,18.73,9.31,0,85
399,126409,http://api.openweathermap.org/data/2.5/weather?id=126409&units=imperial&APPID=0c715aff73757bce5f32aba6da14fd45,Kuhdasht,IR,33.53,47.61,51.8,4.7,0,40
400,2088122,http://api.openweathermap.org/data/2.5/weather?id=2088122&units=imperial&APPID=0c715aff73757bce5f32aba6da14fd45,Port Moresby,PG,-9.44,147.18,82.9,5.73,80,95
401,3089578,http://api.openweathermap.org/data/2.5/weather?id=3089578&units=imperial&APPID=0c715aff73757bce5f32aba6da14fd45,Pabianice,PL,51.66,19.35,33.8,9.17,90,95
402,2287298,http://api.openweathermap.org/data/2.5/weather?id=2287298&units=imperial&APPID=0c715aff73757bce5f32aba6da14fd45,Katiola,CI,8.13,-5.1,87.85,5.5,0,69
403,1717364,http://api.openweathermap.org/data/2.5/weather?id=1717364&units=imperial&APPID=0c715aff73757bce5f32aba6da14fd45,Clarin,PH,8.2,123.86,75.43,5.95,92,90
404,2737393,http://api.openweathermap.org/data/2.5/weather?id=2737393&units=imperial&APPID=0c715aff73757bce5f32aba6da14fd45,Moreira de Conegos,PT,41.39,-8.34,55.4,5.82,20,62
405,1683931,http://api.openweathermap.org/data/2.5/weather?id=1683931&units=imperial&APPID=0c715aff73757bce5f32aba6da14fd45,Tal I Mun Doc,PH,15.21,120.68,77,6.93,90,78
406,5391959,http://api.openweathermap.org/data/2.5/weather?id=5391959&units=imperial&APPID=0c715aff73757bce5f32aba6da14fd45,San Francisco,US,37.77,-122.42,57.2,17.22,1,75
407,4315342,http://api.openweathermap.org/data/2.5/weather?id=4315342&units=imperial&APPID=0c715aff73757bce5f32aba6da14fd45,Baldwin,US,29.84,-91.54,46.4,6.93,90,75
408,5767918,http://api.openweathermap.org/data/2.5/weather?id=5767918&units=imperial&APPID=0c715aff73757bce5f32aba6da14fd45,Pierre,US,44.37,-100.35,33.8,11.41,1,80
409,3205653,http://api.openweathermap.org/data/2.5/weather?id=3205653&units=imperial&APPID=0c715aff73757bce5f32aba6da14fd45,Emmingen-Liptingen,DE,47.93,8.88,35.6,6.62,90,95
410,670826,http://api.openweathermap.org/data/2.5/weather?id=670826&units=imperial&APPID=0c715aff73757bce5f32aba6da14fd45,Pietroasele,RO,45.1,26.57,50,6.93,0,81
411,710374,http://api.openweathermap.org/data/2.5/weather?id=710374&units=imperial&APPID=0c715aff73757bce5f32aba6da14fd45,Chuhuyiv,UA,49.84,36.69,48.2,20.13,75,87
412,3026465,http://api.openweathermap.org/data/2.5/weather?id=3026465&units=imperial&APPID=0c715aff73757bce5f32aba6da14fd45,Chartres-de-Bretagne,FR,48.04,-1.71,46.4,6.93,20,75
413,3167513,http://api.openweathermap.org/data/2.5/weather?id=3167513&units=imperial&APPID=0c715aff73757bce5f32aba6da14fd45,SantAmbrogio di Valpolicella,IT,45.52,10.84,46.4,3.36,0,61
414,2653357,http://api.openweathermap.org/data/2.5/weather?id=2653357&units=imperial&APPID=0c715aff73757bce5f32aba6da14fd45,Chapel Saint Leonards,GB,53.22,0.32,39.2,10.29,0,100
415,3889263,http://api.openweathermap.org/data/2.5/weather?id=3889263&units=imperial&APPID=0c715aff73757bce5f32aba6da14fd45,Frutillar,CL,-41.13,-73.04,55.4,16.11,75,76
416,2970163,http://api.openweathermap.org/data/2.5/weather?id=2970163&units=imperial&APPID=0c715aff73757bce5f32aba6da14fd45,Vemars,FR,49.07,2.57,44.6,8.05,40,75
417,3514502,http://api.openweathermap.org/data/2.5/weather?id=3514502&units=imperial&APPID=0c715aff73757bce5f32aba6da14fd45,Xilitla,MX,21.33,-98.97,49.64,3.27,88,97
418,2236568,http://api.openweathermap.org/data/2.5/weather?id=2236568&units=imperial&APPID=0c715aff73757bce5f32aba6da14fd45,Uige,AO,-7.61,15.06,77.9,3.15,48,75
419,2874246,http://api.openweathermap.org/data/2.5/weather?id=2874246&units=imperial&APPID=0c715aff73757bce5f32aba6da14fd45,Mainhardt,DE,49.08,9.56,37.4,11.41,90,86
420,4579043,http://api.openweathermap.org/data/2.5/weather?id=4579043&units=imperial&APPID=0c715aff73757bce5f32aba6da14fd45,Fountain Inn,US,34.69,-82.2,35.6,2.71,1,80
421,2989890,http://api.openweathermap.org/data/2.5/weather?id=2989890&units=imperial&APPID=0c715aff73757bce5f32aba6da14fd45,Noyen-sur-Sarthe,FR,47.87,-0.1,44.6,5.82,0,70
422,1727369,http://api.openweathermap.org/data/2.5/weather?id=1727369&units=imperial&APPID=0c715aff73757bce5f32aba6da14fd45,Bangad,PH,15.5,121.03,77,6.93,90,78
423,1712307,http://api.openweathermap.org/data/2.5/weather?id=1712307&units=imperial&APPID=0c715aff73757bce5f32aba6da14fd45,Guinsadan,PH,16.96,120.87,62.51,2.48,36,87
424,1266330,http://api.openweathermap.org/data/2.5/weather?id=1266330&units=imperial&APPID=0c715aff73757bce5f32aba6da14fd45,Kokrajhar,IN,26.4,90.27,59.5,3.15,0,90
425,2502686,http://api.openweathermap.org/data/2.5/weather?id=2502686&units=imperial&APPID=0c715aff73757bce5f32aba6da14fd45,Boumahra Ahmed,DZ,36.46,7.51,55.4,3.36,40,82
426,2832423,http://api.openweathermap.org/data/2.5/weather?id=2832423&units=imperial&APPID=0c715aff73757bce5f32aba6da14fd45,Siegsdorf,DE,47.93,12.3,35.6,4.7,75,98
427,1682576,http://api.openweathermap.org/data/2.5/weather?id=1682576&units=imperial&APPID=0c715aff73757bce5f32aba6da14fd45,Tayud,PH,10.38,123.99,77,10.29,90,83
428,3844421,http://api.openweathermap.org/data/2.5/weather?id=3844421&units=imperial&APPID=0c715aff73757bce5f32aba6da14fd45,Mendoza,AR,-32.89,-68.83,87.8,6.93,0,40
429,1262574,http://api.openweathermap.org/data/2.5/weather?id=1262574&units=imperial&APPID=0c715aff73757bce5f32aba6da14fd45,Mul,IN,20.07,79.67,67.15,3.27,0,73
430,3086391,http://api.openweathermap.org/data/2.5/weather?id=3086391&units=imperial&APPID=0c715aff73757bce5f32aba6da14fd45,Rzyki,PL,49.81,19.4,35.6,10.29,90,69
431,4991330,http://api.openweathermap.org/data/2.5/weather?id=4991330&units=imperial&APPID=0c715aff73757bce5f32aba6da14fd45,Dundee,US,41.96,-83.66,35.6,10.29,90,69
432,2814570,http://api.openweathermap.org/data/2.5/weather?id=2814570&units=imperial&APPID=0c715aff73757bce5f32aba6da14fd45,Wallhausen,DE,51.46,11.21,35.6,12.75,75,97
433,3397230,http://api.openweathermap.org/data/2.5/weather?id=3397230&units=imperial&APPID=0c715aff73757bce5f32aba6da14fd45,Jose de Freitas,BR,-4.76,-42.58,87.8,6.93,40,55
434,5368361,http://api.openweathermap.org/data/2.5/weather?id=5368361&units=imperial&APPID=0c715aff73757bce5f32aba6da14fd45,Los Angeles,US,34.05,-118.24,57.2,3.04,40,62
435,2977880,http://api.openweathermap.org/data/2.5/weather?id=2977880&units=imperial&APPID=0c715aff73757bce5f32aba6da14fd45,Saint-Nicolas-de-Port,FR,48.63,6.3,39.2,5.82,90,80
436,1520025,http://api.openweathermap.org/data/2.5/weather?id=1520025&units=imperial&APPID=0c715aff73757bce5f32aba6da14fd45,Tughyl,KZ,47.73,84.21,-3.55,6.4,12,75
437,2795800,http://api.openweathermap.org/data/2.5/weather?id=2795800&units=imperial&APPID=0c715aff73757bce5f32aba6da14fd45,Heusden,BE,51.04,5.28,41,6.93,88,93
438,2885165,http://api.openweathermap.org/data/2.5/weather?id=2885165&units=imperial&APPID=0c715aff73757bce5f32aba6da14fd45,Kottenheim,DE,50.35,7.25,41,9.17,76,98
439,322673,http://api.openweathermap.org/data/2.5/weather?id=322673&units=imperial&APPID=0c715aff73757bce5f32aba6da14fd45,Ayvalik,TR,39.32,26.7,66.2,18.34,40,55
440,2816762,http://api.openweathermap.org/data/2.5/weather?id=2816762&units=imperial&APPID=0c715aff73757bce5f32aba6da14fd45,Vohrenbach,DE,48.05,8.3,35.6,5.82,75,93
441,5508379,http://api.openweathermap.org/data/2.5/weather?id=5508379&units=imperial&APPID=0c715aff73757bce5f32aba6da14fd45,Minden,US,38.95,-119.77,35.6,20.8,90,74
442,4565111,http://api.openweathermap.org/data/2.5/weather?id=4565111&units=imperial&APPID=0c715aff73757bce5f32aba6da14fd45,Guayanilla,PR,18.02,-66.79,78.8,10.29,90,78
443,3470912,http://api.openweathermap.org/data/2.5/weather?id=3470912&units=imperial&APPID=0c715aff73757bce5f32aba6da14fd45,Bandeirantes,BR,-23.11,-50.37,89.78,5.61,0,60
444,4185553,http://api.openweathermap.org/data/2.5/weather?id=4185553&units=imperial&APPID=0c715aff73757bce5f32aba6da14fd45,Byron,US,32.65,-83.76,33.8,3.36,1,86
445,1725572,http://api.openweathermap.org/data/2.5/weather?id=1725572&units=imperial&APPID=0c715aff73757bce5f32aba6da14fd45,Benito Soliven,PH,16.98,121.96,68.68,12.1,100,95
446,3527149,http://api.openweathermap.org/data/2.5/weather?id=3527149&units=imperial&APPID=0c715aff73757bce5f32aba6da14fd45,Hecelchakan,MX,20.17,-90.13,71.6,11.41,90,100
447,2754111,http://api.openweathermap.org/data/2.5/weather?id=2754111&units=imperial&APPID=0c715aff73757bce5f32aba6da14fd45,Heythuysen,NL,51.25,5.9,41,6.93,68,93
448,2292179,http://api.openweathermap.org/data/2.5/weather?id=2292179&units=imperial&APPID=0c715aff73757bce5f32aba6da14fd45,Bangolo,CI,7.01,-7.47,86.27,2.15,8,65
449,674947,http://api.openweathermap.org/data/2.5/weather?id=674947&units=imperial&APPID=0c715aff73757bce5f32aba6da14fd45,Lazuri,RO,47.85,22.87,35.6,14.99,88,100
450,5355180,http://api.openweathermap.org/data/2.5/weather?id=5355180&units=imperial&APPID=0c715aff73757bce5f32aba6da14fd45,Hanford,US,36.33,-119.65,42.8,3.36,1,93
451,288902,http://api.openweathermap.org/data/2.5/weather?id=288902&units=imperial&APPID=0c715aff73757bce5f32aba6da14fd45,Badiyah,OM,22.45,58.8,61.66,3.38,92,98
452,1712072,http://api.openweathermap.org/data/2.5/weather?id=1712072&units=imperial&APPID=0c715aff73757bce5f32aba6da14fd45,Gutad,PH,14.93,120.49,77,5.82,75,78
453,3976161,http://api.openweathermap.org/data/2.5/weather?id=3976161&units=imperial&APPID=0c715aff73757bce5f32aba6da14fd45,Adolfo Lopez Mateos,MX,28.47,-107.3,23.81,2.59,0,83
454,780717,http://api.openweathermap.org/data/2.5/weather?id=780717&units=imperial&APPID=0c715aff73757bce5f32aba6da14fd45,Batsfjord,NO,70.63,29.72,26.6,18.34,75,63
455,4172366,http://api.openweathermap.org/data/2.5/weather?id=4172366&units=imperial&APPID=0c715aff73757bce5f32aba6da14fd45,Seaside,US,30.32,-86.14,44.6,8.05,90,56
456,1269154,http://api.openweathermap.org/data/2.5/weather?id=1269154&units=imperial&APPID=0c715aff73757bce5f32aba6da14fd45,Jatani,IN,20.17,85.7,71.6,4.7,0,88
457,2160232,http://api.openweathermap.org/data/2.5/weather?id=2160232&units=imperial&APPID=0c715aff73757bce5f32aba6da14fd45,Lightning Ridge,AU,-29.43,147.98,70.3,7.4,32,80
458,498295,http://api.openweathermap.org/data/2.5/weather?id=498295&units=imperial&APPID=0c715aff73757bce5f32aba6da14fd45,Savinka,RU,50.08,47.1,23.68,15.01,68,88
459,2817970,http://api.openweathermap.org/data/2.5/weather?id=2817970&units=imperial&APPID=0c715aff73757bce5f32aba6da14fd45,Vacha,DE,50.83,10.02,37.4,4.7,75,93
460,3289093,http://api.openweathermap.org/data/2.5/weather?id=3289093&units=imperial&APPID=0c715aff73757bce5f32aba6da14fd45,Kacuni,BA,44.06,17.94,42.8,4.7,40,75
461,4526469,http://api.openweathermap.org/data/2.5/weather?id=4526469&units=imperial&APPID=0c715aff73757bce5f32aba6da14fd45,Trenton,US,39.48,-84.46,35.6,11.41,1,69
462,6534782,http://api.openweathermap.org/data/2.5/weather?id=6534782&units=imperial&APPID=0c715aff73757bce5f32aba6da14fd45,Marebbe - Enneberg,IT,46.7,11.94,44.6,1.59,20,73
463,709547,http://api.openweathermap.org/data/2.5/weather?id=709547&units=imperial&APPID=0c715aff73757bce5f32aba6da14fd45,Dublyany,UA,49.5,23.39,32,6.71,90,99
464,460570,http://api.openweathermap.org/data/2.5/weather?id=460570&units=imperial&APPID=0c715aff73757bce5f32aba6da14fd45,Cesis,LV,57.31,25.27,29.03,3.6,88,95
465,2754352,http://api.openweathermap.org/data/2.5/weather?id=2754352&units=imperial&APPID=0c715aff73757bce5f32aba6da14fd45,Herkenbosch,NL,51.15,6.06,42.8,6.93,90,86
466,3132176,http://api.openweathermap.org/data/2.5/weather?id=3132176&units=imperial&APPID=0c715aff73757bce5f32aba6da14fd45,Verdal,NO,63.79,11.48,23,8.05,90,92
467,2861939,http://api.openweathermap.org/data/2.5/weather?id=2861939&units=imperial&APPID=0c715aff73757bce5f32aba6da14fd45,Nordholz,DE,53.78,8.6,39.2,11.41,20,80
468,4739052,http://api.openweathermap.org/data/2.5/weather?id=4739052&units=imperial&APPID=0c715aff73757bce5f32aba6da14fd45,Venus,US,32.43,-97.1,42.8,5.82,1,74
469,1735799,http://api.openweathermap.org/data/2.5/weather?id=1735799&units=imperial&APPID=0c715aff73757bce5f32aba6da14fd45,Simanggang,MY,1.25,111.45,77,1.7,75,88
470,793111,http://api.openweathermap.org/data/2.5/weather?id=793111&units=imperial&APPID=0c715aff73757bce5f32aba6da14fd45,Arangelovac,RS,44.31,20.56,41,4.7,75,75
471,1254694,http://api.openweathermap.org/data/2.5/weather?id=1254694&units=imperial&APPID=0c715aff73757bce5f32aba6da14fd45,Thakurganj,IN,26.45,88.13,59.18,3.83,0,82
472,2791315,http://api.openweathermap.org/data/2.5/weather?id=2791315&units=imperial&APPID=0c715aff73757bce5f32aba6da14fd45,Merelbeke,BE,50.99,3.75,41,11.41,75,86
473,2644115,http://api.openweathermap.org/data/2.5/weather?id=2644115&units=imperial&APPID=0c715aff73757bce5f32aba6da14fd45,Llandybie,GB,51.82,-4.01,44.6,17.22,75,93
474,3177906,http://api.openweathermap.org/data/2.5/weather?id=3177906&units=imperial&APPID=0c715aff73757bce5f32aba6da14fd45,Costa di Mezzate,IT,45.66,9.79,44.6,3.36,20,86
475,3395122,http://api.openweathermap.org/data/2.5/weather?id=3395122&units=imperial&APPID=0c715aff73757bce5f32aba6da14fd45,Matinha,BR,-3.1,-45.03,73.9,8.08,92,100
476,2750194,http://api.openweathermap.org/data/2.5/weather?id=2750194&units=imperial&APPID=0c715aff73757bce5f32aba6da14fd45,Nieuw-Helvoet,NL,51.84,4.13,42.8,12.75,40,80
477,3014080,http://api.openweathermap.org/data/2.5/weather?id=3014080&units=imperial&APPID=0c715aff73757bce5f32aba6da14fd45,Hagondange,FR,49.25,6.17,39.2,9.17,90,86
478,1707434,http://api.openweathermap.org/data/2.5/weather?id=1707434&units=imperial&APPID=0c715aff73757bce5f32aba6da14fd45,Tairan Camp,PH,6.64,121.84,82.67,14.34,92,95
479,1706319,http://api.openweathermap.org/data/2.5/weather?id=1706319&units=imperial&APPID=0c715aff73757bce5f32aba6da14fd45,Limot,PH,7.04,126.27,80.6,1.12,75,69
480,4720314,http://api.openweathermap.org/data/2.5/weather?id=4720314&units=imperial&APPID=0c715aff73757bce5f32aba6da14fd45,Pottsboro,US,33.76,-96.67,39.2,11.65,1,80
481,3661980,http://api.openweathermap.org/data/2.5/weather?id=3661980&units=imperial&APPID=0c715aff73757bce5f32aba6da14fd45,Tarauaca,BR,-8.16,-70.77,79.66,5.17,92,92
482,3678363,http://api.openweathermap.org/data/2.5/weather?id=3678363&units=imperial&APPID=0c715aff73757bce5f32aba6da14fd45,La Montanita,CO,1.48,-75.44,82.22,2.93,12,72
483,1704598,http://api.openweathermap.org/data/2.5/weather?id=1704598&units=imperial&APPID=0c715aff73757bce5f32aba6da14fd45,Mabini,PH,6.54,124.9,77.27,5.84,20,79
484,3073261,http://api.openweathermap.org/data/2.5/weather?id=3073261&units=imperial&APPID=0c715aff73757bce5f32aba6da14fd45,Kopidlno,CZ,50.33,15.27,37.4,4.7,0,74
485,548391,http://api.openweathermap.org/data/2.5/weather?id=548391&units=imperial&APPID=0c715aff73757bce5f32aba6da14fd45,Kirovsk,RU,67.61,33.67,20.08,2.15,80,92
486,1276720,http://api.openweathermap.org/data/2.5/weather?id=1276720&units=imperial&APPID=0c715aff73757bce5f32aba6da14fd45,Batala,IN,31.82,75.2,53.6,2.24,0,66
487,4203316,http://api.openweathermap.org/data/2.5/weather?id=4203316&units=imperial&APPID=0c715aff73757bce5f32aba6da14fd45,Jonesboro,US,33.52,-84.35,33.8,8.05,40,56
488,3181809,http://api.openweathermap.org/data/2.5/weather?id=3181809&units=imperial&APPID=0c715aff73757bce5f32aba6da14fd45,Borgo dAle,IT,45.35,8.05,44.6,1.12,0,70
489,2866336,http://api.openweathermap.org/data/2.5/weather?id=2866336&units=imperial&APPID=0c715aff73757bce5f32aba6da14fd45,Nettersheim,DE,50.5,6.63,41,14.99,88,86
490,2986060,http://api.openweathermap.org/data/2.5/weather?id=2986060&units=imperial&APPID=0c715aff73757bce5f32aba6da14fd45,Pornic,FR,47.11,-2.09,46.4,8.05,0,70
491,3471061,http://api.openweathermap.org/data/2.5/weather?id=3471061&units=imperial&APPID=0c715aff73757bce5f32aba6da14fd45,Baixo Guandu,BR,-19.52,-41.02,79.79,4.16,44,75
492,3585398,http://api.openweathermap.org/data/2.5/weather?id=3585398&units=imperial&APPID=0c715aff73757bce5f32aba6da14fd45,Jucuapa,SV,13.52,-88.38,71.6,3.15,0,94
493,4158758,http://api.openweathermap.org/data/2.5/weather?id=4158758&units=imperial&APPID=0c715aff73757bce5f32aba6da14fd45,Hobe Sound,US,27.06,-80.14,66.2,4.7,5,82
494,1707724,http://api.openweathermap.org/data/2.5/weather?id=1707724&units=imperial&APPID=0c715aff73757bce5f32aba6da14fd45,Lampitak,PH,6.43,125.05,77.27,5.84,20,79
495,2818097,http://api.openweathermap.org/data/2.5/weather?id=2818097&units=imperial&APPID=0c715aff73757bce5f32aba6da14fd45,Usingen,DE,50.33,8.53,39.2,9.17,75,80
496,3449720,http://api.openweathermap.org/data/2.5/weather?id=3449720&units=imperial&APPID=0c715aff73757bce5f32aba6da14fd45,Santo Amaro,BR,-12.55,-38.71,80.6,2.24,40,69
497,460474,http://api.openweathermap.org/data/2.5/weather?id=460474&units=imperial&APPID=0c715aff73757bce5f32aba6da14fd45,Dagda,LV,56.1,27.54,29.84,6.51,88,96
498,1720806,http://api.openweathermap.org/data/2.5/weather?id=1720806&units=imperial&APPID=0c715aff73757bce5f32aba6da14fd45,Calabaca,PH,14.3,122.43,77.36,39.39,100,100
499,3030902,http://api.openweathermap.org/data/2.5/weather?id=3030902&units=imperial&APPID=0c715aff73757bce5f32aba6da14fd45,Bournezeau,FR,46.64,-1.17,48.2,10.29,40,65
